[
    {
        "attraction_id": "497a1e42-bf5c-11ed-88bf-04ea5650b820",
        "name": "Hồ Trúc Bạch",
        "category": "Đi dạo, ngắm cảnh",
        "rating": 4.4,
        "avg_price": 0,
        "city": "Hà Nội",
        "district": "Ba Đình",
        "latitude": 21.046358,
        "longitude": 105.8370093
    },
    {
        "attraction_id": "c62ae431-bf5d-11ed-8630-04ea5650b820",
        "name": "Hanoi Studio Gallery",
        "category": "Văn hóa, lịch sử, nghệ thuật",
        "rating": 4.3,
        "avg_price": 0,
        "city": "Hà Nội",
        "district": "Ba Đình",
        "latitude": 21.046258,
        "longitude": 105.8407037
    },
    {
        "attraction_id": "de851a98-bf5e-11ed-9422-04ea5650b820",
        "name": "STAR3 CLUB",
        "category": "Vui chơi, giải trí về đêm",
        "rating": 4.4,
        "avg_price": 0,
        "city": "Hà Nội",
        "district": "Ba Đình",
        "latitude": 21.046258,
        "longitude": 105.8407037
    },
    {
        "attraction_id": "aba7c2df-bf5f-11ed-ae42-04ea5650b820",
        "name": "Bốt Nước Hàng Đậu",
        "category": "Đi dạo, ngắm cảnh",
        "rating": 4.3,
        "avg_price": 0,
        "city": "Hà Nội",
        "district": "Ba Đình",
        "latitude": 21.0407825,
        "longitude": 105.8472994
    },
    {
        "attraction_id": "fe98983f-bf5f-11ed-bc03-04ea5650b820",
        "name": "Đường Phan Đình Phùng",
        "category": "Đi dạo, ngắm cảnh",
        "rating": 4.8,
        "avg_price": 0,
        "city": "Hà Nội",
        "district": "Ba Đình",
        "latitude": 21.0410331,
        "longitude": 105.8403828
    },
    {
        "attraction_id": "67947da8-bf60-11ed-9c4c-04ea5650b820",
        "name": "Đền Quán Thánh",
        "category": "Văn hóa, lịch sử, nghệ thuật",
        "rating": 4.5,
        "avg_price": 0,
        "city": "Hà Nội",
        "district": "Ba Đình",
        "latitude": 21.0428702,
        "longitude": 105.8351671
    },
    {
        "attraction_id": "9ea59957-bf60-11ed-9131-04ea5650b820",
        "name": "Cửa Bắc thành Hà Nội",
        "category": "Văn hóa, lịch sử, nghệ thuật",
        "rating": 4.5,
        "avg_price": 0,
        "city": "Hà Nội",
        "district": "Ba Đình",
        "latitude": 21.0408177,
        "longitude": 105.8400076
    },
    {
        "attraction_id": "356cc211-bf61-11ed-a6c1-04ea5650b820",
        "name": "Nhà Thờ Cửa Bắc",
        "category": "Văn hóa tôn giáo, tâm linh",
        "rating": 4.6,
        "avg_price": 0,
        "city": "Hà Nội",
        "district": "Ba Đình",
        "latitude": 21.0412749,
        "longitude": 105.8404324
    },
    {
        "attraction_id": "a84f6a5c-bf61-11ed-9429-04ea5650b820",
        "name": "Vườn Hoa Hàng Đậu",
        "category": "Đi dạo, ngắm cảnh",
        "rating": 4.3,
        "avg_price": 0,
        "city": "Hà Nội",
        "district": "Ba Đình",
        "latitude": 21.0401322,
        "longitude": 105.8459797
    },
    {
        "attraction_id": "f376a290-bf61-11ed-bc6a-04ea5650b820",
        "name": "Manzi Art Space and Cafe",
        "category": "Đồ uống, thư giãn",
        "rating": 4.5,
        "avg_price": 0,
        "city": "Hà Nội",
        "district": "Ba Đình",
        "latitude": 21.0437341,
        "longitude": 105.8410825
    },
    {
        "attraction_id": "63d80895-bf62-11ed-aecd-04ea5650b820",
        "name": "TỔ CHIM XANH - BLUEBIRDS' NEST",
        "category": "Đồ uống, thư giãn",
        "rating": 4.6,
        "avg_price": 0,
        "city": "Hà Nội",
        "district": "Ba Đình",
        "latitude": 21.0417467,
        "longitude": 105.8387475
    },
    {
        "attraction_id": "f2883b95-bf62-11ed-bfc7-04ea5650b820",
        "name": "Phở Cuốn Hương Mai",
        "category": "Ẩm thực, nghỉ ngơi",
        "rating": 4.2,
        "avg_price": 0,
        "city": "Hà Nội",
        "district": "Ba Đình",
        "latitude": 21.0419968,
        "longitude": 105.8388849
    },
    {
        "attraction_id": "8ce8dac5-bf65-11ed-8fcf-04ea5650b820",
        "name": "Chùa Châu Long",
        "category": "Văn hóa tôn giáo, tâm linh",
        "rating": 4.3,
        "avg_price": 0,
        "city": "Hà Nội",
        "district": "Ba Đình",
        "latitude": 21.0449038,
        "longitude": 105.8420936
    },
    {
        "attraction_id": "289262a5-bf66-11ed-a71c-04ea5650b820",
        "name": "Bánh cuốn Bà Xuân",
        "category": "Ẩm thực, nghỉ ngơi",
        "rating": 4.2,
        "avg_price": 0,
        "city": "Hà Nội",
        "district": "Ba Đình",
        "latitude": 21.0423087,
        "longitude": 105.8473552
    },
    {
        "attraction_id": "4a8aff4f-bf66-11ed-b9e5-04ea5650b820",
        "name": "All Day Coffee 55 Hàng Bún",
        "category": "Đồ uống, thư giãn",
        "rating": 4.5,
        "avg_price": 0,
        "city": "Hà Nội",
        "district": "Ba Đình",
        "latitude": 21.041025,
        "longitude": 105.8445068
    },
    {
        "attraction_id": "da48ee4a-bfba-11ed-bd7a-04ea5650b820",
        "name": "Vườn Bách Thảo Hà Nội",
        "category": "Công viên, đi dạo, ngắm cảnh, cắm trại",
        "rating": 4.2,
        "avg_price": 0,
        "city": "Hà Nội",
        "district": "Ba Đình",
        "latitude": 21.0382735,
        "longitude": 105.831109
    },
    {
        "attraction_id": "5200d249-bfbb-11ed-922b-04ea5650b820",
        "name": "Nhà sàn Bác Hồ",
        "category": "Văn hóa, lịch sử, nghệ thuật",
        "rating": 4.2,
        "avg_price": 0,
        "city": "Hà Nội",
        "district": "Ba Đình",
        "latitude": 21.0382735,
        "longitude": 105.831109
    },
    {
        "attraction_id": "d79e5d9f-bfbb-11ed-804e-04ea5650b820",
        "name": "Cafe Goethe",
        "category": "Đồ uống, thư giãn",
        "rating": 4.2,
        "avg_price": 0,
        "city": "Hà Nội",
        "district": "Ba Đình",
        "latitude": 21.0304661,
        "longitude": 105.8366466
    },
    {
        "attraction_id": "0243b660-bfbc-11ed-915d-04ea5650b820",
        "name": "Bảo tàng Mỹ thuật Việt Nam",
        "category": "Văn hóa, lịch sử, nghệ thuật",
        "rating": 4.2,
        "avg_price": 0,
        "city": "Hà Nội",
        "district": "Ba Đình",
        "latitude": 21.0306889,
        "longitude": 105.837908
    },
    {
        "attraction_id": "628fb79f-bfbc-11ed-a357-04ea5650b820",
        "name": "Vườn hoa Lênin",
        "category": "Đi dạo, ngắm cảnh",
        "rating": 4.3,
        "avg_price": 0,
        "city": "Hà Nội",
        "district": "Ba Đình",
        "latitude": 21.0315717,
        "longitude": 105.8392123
    },
    {
        "attraction_id": "9296481b-bfbc-11ed-b63f-04ea5650b820",
        "name": "Bảo tàng Lịch sử Quân sự Việt Nam",
        "category": "Văn hóa, lịch sử, nghệ thuật",
        "rating": 4.2,
        "avg_price": 0,
        "city": "Hà Nội",
        "district": "Ba Đình",
        "latitude": 21.0325549,
        "longitude": 105.8393124
    },
    {
        "attraction_id": "bd696800-bfbc-11ed-bcde-04ea5650b820",
        "name": "Cột cờ Hà Nội",
        "category": "Văn hóa, lịch sử, nghệ thuật",
        "rating": 4.5,
        "avg_price": 0,
        "city": "Hà Nội",
        "district": "Ba Đình",
        "latitude": 21.0325549,
        "longitude": 105.8393124
    },
    {
        "attraction_id": "29c85392-bfbd-11ed-8323-04ea5650b820",
        "name": "Hoàng Thành Thăng Long",
        "category": "Văn hóa, lịch sử, nghệ thuật",
        "rating": 4.4,
        "avg_price": 0,
        "city": "Hà Nội",
        "district": "Ba Đình",
        "latitude": 21.0357308,
        "longitude": 105.8400091
    },
    {
        "attraction_id": "8c9330f0-bfbd-11ed-8f6b-04ea5650b820",
        "name": "Điện Kính Thiên",
        "category": "Văn hóa, lịch sử, nghệ thuật",
        "rating": 4.4,
        "avg_price": 0,
        "city": "Hà Nội",
        "district": "Ba Đình",
        "latitude": 21.0368231,
        "longitude": 105.8396365
    },
    {
        "attraction_id": "b00f6f3c-bfbd-11ed-ba29-04ea5650b820",
        "name": "Tượng đài Bắc Sơn",
        "category": "Văn hóa, lịch sử, nghệ thuật",
        "rating": 4.5,
        "avg_price": 0,
        "city": "Hà Nội",
        "district": "Ba Đình",
        "latitude": 21.0358898,
        "longitude": 105.8389001
    },
    {
        "attraction_id": "dffc8a6d-bfbd-11ed-b2d2-04ea5650b820",
        "name": "Cộng Cà Phê",
        "category": "Đồ uống, thư giãn",
        "rating": 4.2,
        "avg_price": 0,
        "city": "Hà Nội",
        "district": "Ba Đình",
        "latitude": 21.0339522,
        "longitude": 105.8379675
    },
    {
        "attraction_id": "244364ad-bfbe-11ed-943b-04ea5650b820",
        "name": "An Nhien Cafe Khuc Hao",
        "category": "Đồ uống, thư giãn",
        "rating": 4.2,
        "avg_price": 0,
        "city": "Hà Nội",
        "district": "Ba Đình",
        "latitude": 21.0319693,
        "longitude": 105.8363105
    },
    {
        "attraction_id": "e14ab087-bfbe-11ed-8c81-04ea5650b820",
        "name": "Quảng trường Ba Đình",
        "category": "Văn hóa, lịch sử, nghệ thuật",
        "rating": 4.6,
        "avg_price": 0,
        "city": "Hà Nội",
        "district": "Ba Đình",
        "latitude": 21.0363194,
        "longitude": 105.8348019
    },
    {
        "attraction_id": "fcfd0f42-bfbe-11ed-a0af-04ea5650b820",
        "name": "Lăng Chủ tịch Hồ Chí Minh",
        "category": "Văn hóa, lịch sử, nghệ thuật",
        "rating": 4.5,
        "avg_price": 0,
        "city": "Hà Nội",
        "district": "Ba Đình",
        "latitude": 21.037022,
        "longitude": 105.8340603
    },
    {
        "attraction_id": "34455071-bfbf-11ed-9ae7-04ea5650b820",
        "name": "Chùa Một Cột",
        "category": "Văn hóa tôn giáo, tâm linh",
        "rating": 4.5,
        "avg_price": 0,
        "city": "Hà Nội",
        "district": "Ba Đình",
        "latitude": 21.0356672,
        "longitude": 105.832563
    },
    {
        "attraction_id": "62039f58-bfbf-11ed-8d49-04ea5650b820",
        "name": "Bảo tàng Hồ Chí Minh",
        "category": "Văn hóa, lịch sử, nghệ thuật",
        "rating": 4.3,
        "avg_price": 0,
        "city": "Hà Nội",
        "district": "Ba Đình",
        "latitude": 21.0354475,
        "longitude": 105.8322877
    },
    {
        "attraction_id": "8a5dcb26-bfbf-11ed-b351-04ea5650b820",
        "name": "Quán Bánh Cuốn Nóng Gia Truyền Đội Cấn",
        "category": "Ẩm thực, nghỉ ngơi",
        "rating": 4.3,
        "avg_price": 0,
        "city": "Hà Nội",
        "district": "Ba Đình",
        "latitude": 21.0343168,
        "longitude": 105.8297043
    },
    {
        "attraction_id": "c2e03bf9-bfbf-11ed-9b1a-04ea5650b820",
        "name": "Chè Thái Đội Cấn",
        "category": "Ẩm thực, nghỉ ngơi",
        "rating": 4.1,
        "avg_price": 0,
        "city": "Hà Nội",
        "district": "Ba Đình",
        "latitude": 21.0343168,
        "longitude": 105.8297043
    },
    {
        "attraction_id": "46760130-bfde-11ed-a593-04ea5650b820",
        "name": "Công viên Indira Gandhi",
        "category": "Công viên, đi dạo, ngắm cảnh",
        "rating": 4.2,
        "avg_price": 0,
        "city": "Hà Nội",
        "district": "Ba Đình",
        "latitude": 21.0207413,
        "longitude": 105.8115085
    },
    {
        "attraction_id": "e58b9edb-bfde-11ed-a8a8-04ea5650b820",
        "name": "Đình Làng Thành Công",
        "category": "Văn hóa, lịch sử, nghệ thuật",
        "rating": 4.3,
        "avg_price": 0,
        "city": "Hà Nội",
        "district": "Ba Đình",
        "latitude": 21.0212103,
        "longitude": 105.8173125
    },
    {
        "attraction_id": "034fd615-bfdf-11ed-b60f-04ea5650b820",
        "name": "Tiny Cafe",
        "category": "Đồ uống, thư giãn",
        "rating": 4.4,
        "avg_price": 0,
        "city": "Hà Nội",
        "district": "Ba Đình",
        "latitude": 21.0219927,
        "longitude": 105.8178141
    },
    {
        "attraction_id": "29bddf25-bfdf-11ed-9573-04ea5650b820",
        "name": "Miến Lươn Huyền Trang",
        "category": "Ẩm thực, nghỉ ngơi",
        "rating": 4.0,
        "avg_price": 0,
        "city": "Hà Nội",
        "district": "Ba Đình",
        "latitude": 21.0236252,
        "longitude": 105.8187708
    },
    {
        "attraction_id": "741b1894-bfdf-11ed-bd8e-04ea5650b820",
        "name": "Quán Xôi Xéo Oanh Oanh",
        "category": "Ẩm thực, nghỉ ngơi",
        "rating": 4.3,
        "avg_price": 0,
        "city": "Hà Nội",
        "district": "Ba Đình",
        "latitude": 21.0234238,
        "longitude": 105.8173328
    },
    {
        "attraction_id": "b9cf8169-bfdf-11ed-bfbb-04ea5650b820",
        "name": "Phở Lý Quốc Sư",
        "category": "Ẩm thực, nghỉ ngơi",
        "rating": 4.2,
        "avg_price": 0,
        "city": "Hà Nội",
        "district": "Ba Đình",
        "latitude": 21.0208135,
        "longitude": 105.8142165
    },
    {
        "attraction_id": "e28c1c4b-bfdf-11ed-b5c9-04ea5650b820",
        "name": "Công viên Thủ Lệ",
        "category": "Công viên, giải trí, đi dạo, ngắm cảnh",
        "rating": 4.1,
        "avg_price": 0,
        "city": "Hà Nội",
        "district": "Ba Đình",
        "latitude": 21.0303808,
        "longitude": 105.8044717
    },
    {
        "attraction_id": "c5369d25-bfe2-11ed-86ca-04ea5650b820",
        "name": "Haan Vegan - Buffet Chay",
        "category": "Ẩm thực, nghỉ ngơi",
        "rating": 4.4,
        "avg_price": 0,
        "city": "Hà Nội",
        "district": "Ba Đình",
        "latitude": 21.0331734,
        "longitude": 105.8052527
    },
    {
        "attraction_id": "066a4b65-bfe3-11ed-899f-04ea5650b820",
        "name": "Bò King Beefsteak",
        "category": "Ẩm thực, nghỉ ngơi",
        "rating": 4.3,
        "avg_price": 0,
        "city": "Hà Nội",
        "district": "Ba Đình",
        "latitude": 21.0330394,
        "longitude": 105.8056118
    },
    {
        "attraction_id": "2649fa4c-bfe3-11ed-a384-04ea5650b820",
        "name": "Thạch Dừa Đồng Tháp",
        "category": "Đồ uống, thư giãn",
        "rating": 4.1,
        "avg_price": 0,
        "city": "Hà Nội",
        "district": "Ba Đình",
        "latitude": 21.0257028,
        "longitude": 105.8109907
    },
    {
        "attraction_id": "d38caf3d-bfe4-11ed-933e-04ea5650b820",
        "name": "Highlands Coffee Kim Mã",
        "category": "Đồ uống, thư giãn",
        "rating": 4.1,
        "avg_price": 0,
        "city": "Hà Nội",
        "district": "Ba Đình",
        "latitude": 21.0296085,
        "longitude": 105.8101597
    },
    {
        "attraction_id": "f89f3942-bfe4-11ed-a823-04ea5650b820",
        "name": "AHA Cafe",
        "category": "Đồ uống, thư giãn",
        "rating": 4.1,
        "avg_price": 0,
        "city": "Hà Nội",
        "district": "Ba Đình",
        "latitude": 21.0282398,
        "longitude": 105.8123007
    },
    {
        "attraction_id": "57d72e93-bfe5-11ed-8d5b-04ea5650b820",
        "name": "Paris Gateaux Cafe",
        "category": "Đồ uống, thư giãn",
        "rating": 4.0,
        "avg_price": 0,
        "city": "Hà Nội",
        "district": "Ba Đình",
        "latitude": 21.0273153,
        "longitude": 105.8127297
    },
    {
        "attraction_id": "8471ed28-bfe5-11ed-9cf8-04ea5650b820",
        "name": "Highlands Coffee VTV",
        "category": "Đồ uống, thư giãn",
        "rating": 4.4,
        "avg_price": 0,
        "city": "Hà Nội",
        "district": "Ba Đình",
        "latitude": 21.026439, 
        "longitude": 105.812048
    },
    {
        "attraction_id": "ce918d10-bfe5-11ed-8737-04ea5650b820",
        "name": "Bún Chả Ngọc Khánh",
        "category": "Ẩm thực, nghỉ ngơi",
        "rating": 4.0,
        "avg_price": 0,
        "city": "Hà Nội",
        "district": "Ba Đình",
        "latitude": 21.0270444,
        "longitude": 105.8122778
    },
    {
        "attraction_id": "f4fc6333-bfe5-11ed-8478-04ea5650b820",
        "name": "Vincom Metropolis Liễu Giai",
        "category": "Trung tâm thương mại",
        "rating": 4.4,
        "avg_price": 0,
        "city": "Hà Nội",
        "district": "Ba Đình",
        "latitude": 21.0311427,
        "longitude": 105.8128634
    },
    {
        "attraction_id": "8b844aac-bfe6-11ed-b9c3-04ea5650b820",
        "name": "Phê La Núi Trúc",
        "category": "Đồ uống, thư giãn",
        "rating": 4.2,
        "avg_price": 0,
        "city": "Hà Nội",
        "district": "Ba Đình",
        "latitude": 21.0317766,
        "longitude": 105.8191651
    },
    {
        "attraction_id": "cfb7db30-bfe6-11ed-a07b-04ea5650b820",
        "name": "GoGi House",
        "category": "Ẩm thực, nghỉ ngơi",
        "rating": 4.2,
        "avg_price": 0,
        "city": "Hà Nội",
        "district": "Ba Đình",
        "latitude": 21.0327814,
        "longitude": 105.826816
    },
    {
        "attraction_id": "00daa7b1-bfe7-11ed-b3c6-04ea5650b820",
        "name": "Lẩu Ếch Hà My",
        "category": "Ẩm thực, nghỉ ngơi",
        "rating": 4.1,
        "avg_price": 0,
        "city": "Hà Nội",
        "district": "Ba Đình",
        "latitude": 21.0332529,
        "longitude": 105.8268508
    },
    {
        "attraction_id": "2d13d526-bfe7-11ed-a599-04ea5650b820",
        "name": "Miến lươn Sành Phố Cổ",
        "category": "Ẩm thực, nghỉ ngơi",
        "rating": 4.2,
        "avg_price": 0,
        "city": "Hà Nội",
        "district": "Ba Đình",
        "latitude": 21.0337881,
        "longitude": 105.8149232
    },
    {
        "attraction_id": "6647b830-bfe7-11ed-95ac-04ea5650b820",
        "name": "Cộng Cà Phê",
        "category": "Đồ uống, thư giãn",
        "rating": 4.1,
        "avg_price": 0,
        "city": "Hà Nội",
        "district": "Ba Đình",
        "latitude": 21.0337881,
        "longitude": 105.8149232
    },
    {
        "attraction_id": "8f95b0cd-bfe7-11ed-a406-04ea5650b820",
        "name": "Quán Lươn Nghệ An Bà Liêm",
        "category": "Ẩm thực, nghỉ ngơi",
        "rating": 4.0,
        "avg_price": 0,
        "city": "Hà Nội",
        "district": "Ba Đình",
        "latitude": 21.0357623,
        "longitude": 105.8169596
    },
    {
        "attraction_id": "cc852765-bfe7-11ed-9882-04ea5650b820",
        "name": "Bánh Xèo Nem Lụi Ngọc Dương Đội Cấn",
        "category": "Ẩm thực, nghỉ ngơi",
        "rating": 4.1,
        "avg_price": 0,
        "city": "Hà Nội",
        "district": "Ba Đình",
        "latitude": 21.0347999,
        "longitude": 105.8267742
    },
    {
        "attraction_id": "477a3c4d-bfe8-11ed-a851-04ea5650b820",
        "name": "Quán Cháo Sườn sụn Đội Cấn",
        "category": "Ẩm thực, nghỉ ngơi",
        "rating": 3.9,
        "avg_price": 0,
        "city": "Hà Nội",
        "district": "Ba Đình",
        "latitude": 21.0345374,
        "longitude": 105.8261168
    },
    {
        "attraction_id": "477a3c4d-bfe8-11ed-a851-04ea5650b820",
        "name": "Bún Bò Huế An Cựu",
        "category": "Ẩm thực, nghỉ ngơi",
        "rating": 4.2,
        "avg_price": 0,
        "city": "Hà Nội",
        "district": "Ba Đình",
        "latitude": 21.0345306,
        "longitude": 105.826518
    },
    {
        "attraction_id": "b023628a-bfe8-11ed-a069-04ea5650b820",
        "name": "Bảo tàng Chiến thắng B-52",
        "category": "Văn hóa, lịch sử, nghệ thuật",
        "rating": 4.3,
        "avg_price": 0,
        "city": "Hà Nội",
        "district": "Ba Đình",
        "latitude": 21.0353704,
        "longitude": 105.8258728
    },
    {
        "attraction_id": "08bcc1b9-bfe9-11ed-b8dc-04ea5650b820",
        "name": "Pizza 4P's Phan Ké Bính",
        "category": "Ẩm thực, nghỉ ngơi",
        "rating": 4.9,
        "avg_price": 0,
        "city": "Hà Nội",
        "district": "Ba Đình",
        "latitude": 21.0344102,
        "longitude": 105.8127703
    },
    {
        "attraction_id": "30f42d6d-bfe9-11ed-968c-04ea5650b82",
        "name": "Joma Bakery Café • Liễu Giai",
        "category": "Đồ uống, thư giãn",
        "rating": 4.3,
        "avg_price": 0,
        "city": "Hà Nội",
        "district": "Ba Đình",
        "latitude": 21.034881,
        "longitude": 105.813986
    },
    {
        "attraction_id": "76362c39-bfe9-11ed-870b-04ea5650b820",
        "name": "Soya Garden",
        "category": "Đồ uống, thư giãn",
        "rating": 4.3,
        "avg_price": 0,
        "city": "Hà Nội",
        "district": "Ba Đình",
        "latitude": 21.0380459,
        "longitude": 105.8152393
    },
    {
        "attraction_id": "efa97d9b-c1b1-11ed-a581-04ea5650b820",
        "name": "Twitter Beans Coffee Hoàng Đạo Thúy",
        "category": "Đồ uống, thư giãn",
        "rating": 4.2,
        "avg_price": 0,
        "city": "Hà Nội",
        "district": "Cầu Giấy",
        "latitude": 21.0071257,
        "longitude": 105.8030442
    },
    {
        "attraction_id": "9d893028-c1b2-11ed-ae5a-04ea5650b820",
        "name": "Vincom Center Trần Duy Hưng",
        "category": "Trung tâm thương mại",
        "rating": 4.4,
        "avg_price": 0,
        "city": "Hà Nội",
        "district": "Cầu Giấy",
        "latitude": 21.0062965,
        "longitude": 105.795794
    },
    {
        "attraction_id": "cdf65bdc-c1b2-11ed-b328-04ea5650b820",
        "name": "Trung Nguyên Legend Café",
        "category": "Đồ uống, thư giãn",
        "rating": 4.3,
        "avg_price": 0,
        "city": "Hà Nội",
        "district": "Cầu Giấy",
        "latitude": 21.00894,
        "longitude": 105.8010713
    },
    {
        "attraction_id": "abdc0cce-c1b4-11ed-bc0a-04ea5650b820",
        "name": "Cafe Nhạc Trịnh",
        "category": "Đồ uống, thư giãn",
        "rating": 4.3,
        "avg_price": 0,
        "city": "Hà Nội",
        "district": "Cầu Giấy",
        "latitude": 21.0138193,
        "longitude": 105.7973974
    },
    {
        "attraction_id": "edf605a7-c1b4-11ed-80ec-04ea5650b820",
        "name": "Twitter Beans Coffee Vũ Phạm Hàm",
        "category": "Đồ uống, thư giãn",
        "rating": 4.4,
        "avg_price": 0,
        "city": "Hà Nội",
        "district": "Cầu Giấy",
        "latitude": 21.0158992,
        "longitude": 105.796524
    },
    {
        "attraction_id": "1edf7060-c1b5-11ed-be45-04ea5650b820",
        "name": "The Coffee House Vũ Phạm Hàm",
        "category": "Đồ uống, thư giãn",
        "rating": 4.3,
        "avg_price": 0,
        "city": "Hà Nội",
        "district": "Cầu Giấy",
        "latitude": 21.0158425,
        "longitude": 105.7976369
    },
    {
        "attraction_id": "803cc28b-c1b5-11ed-8bf1-04ea5650b820",
        "name": "Highlands Coffee Vũ Phạm Hàm",
        "category": "Đồ uống, thư giãn",
        "rating": 4.1,
        "avg_price": 0,
        "city": "Hà Nội",
        "district": "Cầu Giấy",
        "latitude": 21.0168288,
        "longitude": 105.7984752
    },
    {
        "attraction_id": "b3698de0-c1b5-11ed-91ab-04ea5650b820",
        "name": "Cộng Cà Phê Trung Hòa",
        "category": "Đồ uống, thư giãn",
        "rating": 4.2,
        "avg_price": 0,
        "city": "Hà Nội",
        "district": "Cầu Giấy",
        "latitude": 21.0173119,
        "longitude": 105.7985859
    },
    {
        "attraction_id": "eb820c85-c1b5-11ed-a617-04ea5650b820",
        "name": "Highlands Coffee Trung Kính",
        "category": "Đồ uống, thư giãn",
        "rating": 4.2,
        "avg_price": 0,
        "city": "Hà Nội",
        "district": "Cầu Giấy",
        "latitude": 21.0188139,
        "longitude": 105.7929268
    },
    {
        "attraction_id": "275519c5-c1b6-11ed-8b82-04ea5650b820",
        "name": "AHA Cafe Trung Kính",
        "category": "Đồ uống, thư giãn",
        "rating": 4.2,
        "avg_price": 0,
        "city": "Hà Nội",
        "district": "Cầu Giấy",
        "latitude": 21.0184667,
        "longitude": 105.7926451
    },
    {
        "attraction_id": "4f3bdea4-c1b6-11ed-8d93-04ea5650b820",
        "name": "Công viên Cầu Giấy",
        "category": "Công viên, đi dạo, ngắm cảnh",
        "rating": 4.4,
        "avg_price": 0,
        "city": "Hà Nội",
        "district": "Cầu Giấy",
        "latitude": 21.0285137,
        "longitude": 105.7914721
    },
    {
        "attraction_id": "b0da0865-c1b6-11ed-a52a-04ea5650b820",
        "name": "Chùa Cót",
        "category": "Văn hóa tôn giáo, tâm linh",
        "rating": 4.6,
        "avg_price": 0,
        "city": "Hà Nội",
        "district": "Cầu Giấy",
        "latitude": 21.0237497,
        "longitude": 105.79258
    },
    {
        "attraction_id": "f5c505ae-c1b6-11ed-aa6f-04ea5650b820",
        "name": "KF POOL ARENA",
        "category": "Vui chơi, giải trí",
        "rating": 4.5,
        "avg_price": 0,
        "city": "Hà Nội",
        "district": "Cầu Giấy",
        "latitude": 21.0312037,
        "longitude": 105.7967814
    },
    {
        "attraction_id": "809bcfa4-c1b7-11ed-8400-04ea5650b820",
        "name": "Starbucks Duy Tân",
        "category": "Đồ uống, thư giãn",
        "rating": 4.5,
        "avg_price": 0,
        "city": "Hà Nội",
        "district": "Cầu Giấy",
        "latitude": 21.0312041,
        "longitude": 105.7854047
    },
    {
        "attraction_id": "7bbad9e5-c1b7-11ed-b193-04ea5650b820",
        "name": "Bún Riêu Bề Bề Tiến Huân",
        "category": "Ẩm thực, nghỉ ngơi",
        "rating": 4.0,
        "avg_price": 0,
        "city": "Hà Nội",
        "district": "Cầu Giấy",
        "latitude": 21.0300793,
        "longitude": 105.7845946
    },
    {
        "attraction_id": "cee1f952-c1b7-11ed-adf3-04ea5650b820",
        "name": "Trâu Kinh Bắc Thành Thái",
        "category": "Ẩm thực, nghỉ ngơi",
        "rating": 4.0,
        "avg_price": 0,
        "city": "Hà Nội",
        "district": "Cầu Giấy",
        "latitude": 21.0290739,
        "longitude": 105.794132
    },
    {
        "attraction_id": "0f200436-c1b8-11ed-839d-04ea5650b820",
        "name": "Cốm Làng Vòng Bà Hoản",
        "category": "Ẩm thực, nghỉ ngơi",
        "rating": 4.2,
        "avg_price": 0,
        "city": "Hà Nội",
        "district": "Cầu Giấy",
        "latitude": 21.034685,
        "longitude": 105.7877532
    },
    {
        "attraction_id": "61d59407-c1b8-11ed-9e8d-04ea5650b820",
        "name": "Gác Trịnh Cafe Trần Thái Tông",
        "category": "Đồ uống, thư giãn",
        "rating": 4.4,
        "avg_price": 0,
        "city": "Hà Nội",
        "district": "Cầu Giấy",
        "latitude": 21.0352832,
        "longitude": 105.7887213
    },
    {
        "attraction_id": "8c14cbe2-c1b8-11ed-ae65-04ea5650b820",
        "name": "Chùa Hà",
        "category": "Văn hóa tôn giáo, tâm linh",
        "rating": 4.4,
        "avg_price": 0,
        "city": "Hà Nội",
        "district": "Cầu Giấy",
        "latitude": 21.0370985,
        "longitude": 105.7941475
    },
    {
        "attraction_id": "e9434ab1-c1b8-11ed-a157-04ea5650b820",
        "name": "Bảo tàng Dân tộc học Việt Nam",
        "category": "Văn hóa, lịch sử, nghệ thuật",
        "rating": 4.5,
        "avg_price": 0,
        "city": "Hà Nội",
        "district": "Cầu Giấy",
        "latitude": 21.0401122,
        "longitude": 105.7982509
    },
    {
        "attraction_id": "4a0e99a6-c1b9-11ed-a25a-04ea5650b820",
        "name": "The Coffee House Nguyễn Khánh Toàn",
        "category": "Đồ uống, thư giãn",
        "rating": 4.4,
        "avg_price": 0,
        "city": "Hà Nội",
        "district": "Cầu Giấy",
        "latitude": 21.0395283,
        "longitude": 105.7985088
    },
    {
        "attraction_id": "6e14b38c-c1b9-11ed-bee4-04ea5650b820",
        "name": "Công viên Nghĩa Đô",
        "category": "Công viên, đi dạo, ngắm cảnh",
        "rating": 4.3,
        "avg_price": 0,
        "city": "Hà Nội",
        "district": "Cầu Giấy",
        "latitude": 21.0398946,
        "longitude": 105.7965372
    },
    {
        "attraction_id": "993293c6-c1b9-11ed-9e7b-04ea5650b820",
        "name": "TreeLand Coffee",
        "category": "Đồ uống, thư giãn",
        "rating": 4.4,
        "avg_price": 0,
        "city": "Hà Nội",
        "district": "Cầu Giấy",
        "latitude": 21.0419619,
        "longitude": 105.7905758
    },
    {
        "attraction_id": "f305c3ef-c1ba-11ed-85f4-04ea5650b820",
        "name": "Công Viên Thiên Đường Bảo Sơn",
        "category": "Công viên, sở thú, vui chơi, giải trí",
        "rating": 4.0,
        "avg_price": 0,
        "city": "Hà Nội",
        "district": "Cầu Giấy",
        "latitude": 20.999005,
        "longitude": 105.7284034
    },
    {
        "attraction_id": "39eecfa9-c086-11ed-9546-04ea5650b820",
        "name": "Văn Miếu – Quốc Tử Giám",
        "category": "Văn hóa, lịch sử, nghệ thuật",
        "rating": 4.6,
        "avg_price": 40000,
        "city": "Hà Nội",
        "district": "Đống Đa",
        "latitude": 21.0287485,
        "longitude": 105.8329442
    },
    {
        "attraction_id": "9357604e-c086-11ed-a3a1-04ea5650b820",
        "name": "Highlands Coffee Pullman HN",
        "category": "Đồ uống, thư giãn",
        "rating": 4.2,
        "avg_price": 0,
        "city": "Hà Nội",
        "district": "Đống Đa",
        "latitude": 21.0296018,
        "longitude": 105.8280172
    },
    {
        "attraction_id": "e794cd2a-c086-11ed-9e61-04ea5650b820",
        "name": "Nguyen Art Gallery - Vietnam Artworks & Paintings",
        "category": "Triển lãm, nghệ thuật",
        "rating": 4.7,
        "avg_price": 0,
        "city": "Hà Nội",
        "district": "Đống Đa",
        "latitude": 21.0279933,
        "longitude": 105.8362406
    },
    {
        "attraction_id": "441a429d-c087-11ed-87f3-04ea5650b820",
        "name": "PHỞ GÀ VĂN MIẾU 17",
        "category": "Ẩm thực, nghỉ ngơi",
        "rating": 4.7,
        "avg_price": 0,
        "city": "Hà Nội",
        "district": "Đống Đa",
        "latitude": 21.0289115,
        "longitude": 105.8375611
    },
    {
        "attraction_id": "5eb7d375-c087-11ed-8428-04ea5650b820",
        "name": "Ga Cát Linh",
        "category": "Tàu điện, chụp ảnh",
        "rating": 4.6,
        "avg_price": 0,
        "city": "Hà Nội",
        "district": "Đống Đa",
        "latitude": 21.0282537,
        "longitude": 105.8267202
    },
    {
        "attraction_id": "0466c04a-c09d-11ed-9ee6-04ea5650b820",
        "name": "Chùa Láng",
        "category": "Văn hóa tôn giáo, tâm linh",
        "rating": 4.6,
        "avg_price": 0,
        "city": "Hà Nội",
        "district": "Đống Đa",
        "latitude": 21.0241405,
        "longitude": 105.8038537
    },
    {
        "attraction_id": "70828724-c09d-11ed-970f-04ea5650b820",
        "name": "Nhà Hàng Vịt Vân Đình Minh Phương",
        "category": "Ẩm thực, nghỉ ngơi",
        "rating": 4.2,
        "avg_price": 0,
        "city": "Hà Nội",
        "district": "Đống Đa",
        "latitude": 21.0227192,
        "longitude": 105.8029195
    },
    {
        "attraction_id": "a11de600-c09d-11ed-b8c8-04ea5650b820",
        "name": "Bún Đậu Chùa Láng",
        "category": "Ẩm thực, nghỉ ngơi",
        "rating": 4.2,
        "avg_price": 0,
        "city": "Hà Nội",
        "district": "Đống Đa",
        "latitude": 21.0227137,
        "longitude": 105.801507
    },
    {
        "attraction_id": "ca7f271c-c09d-11ed-913a-04ea5650b820",
        "name": "Nhà Hàng Chả Cá Lão Ngư",
        "category": "Ẩm thực, nghỉ ngơi",
        "rating": 4.2,
        "avg_price": 0,
        "city": "Hà Nội",
        "district": "Đống Đa",
        "latitude": 21.0157019,
        "longitude": 105.8150167
    },
    {
        "attraction_id": "58ccea31-c09e-11ed-8f5f-04ea5650b820",
        "name": "La Mensa",
        "category": "Đồ uống, thư giãn",
        "rating": 4.2,
        "avg_price": 0,
        "city": "Hà Nội",
        "district": "Đống Đa",
        "latitude": 21.014082,
        "longitude": 105.8160752
    },
    {
        "attraction_id": "7e809b92-c09e-11ed-8fa0-04ea5650b820",
        "name": "Highlands coffee Yên Lãng",
        "category": "Đồ uống, thư giãn",
        "rating": 4.2,
        "avg_price": 0,
        "city": "Hà Nội",
        "district": "Đống Đa",
        "latitude": 21.0113395,
        "longitude": 105.8175061
    },
    {
        "attraction_id": "d23a9ce6-c09e-11ed-a97c-04ea5650b820",
        "name": "Cộng Cà phê Đường Láng",
        "category": "Đồ uống, thư giãn",
        "rating": 4.2,
        "avg_price": 0,
        "city": "Hà Nội",
        "district": "Đống Đa",
        "latitude": 21.003678,
        "longitude": 105.8173167
    },
    {
        "attraction_id": "57e2428c-c09f-11ed-bac9-04ea5650b820",
        "name": "Laika Cafe Đường Láng",
        "category": "Đồ uống, thư giãn",
        "rating": 4.2,
        "avg_price": 0,
        "city": "Hà Nội",
        "district": "Đống Đa",
        "latitude": 21.003714, 
        "longitude": 105.819208
    },
    {
        "attraction_id": "85fcf57f-c09f-11ed-8cd2-04ea5650b820",
        "name": "Chè Thanh Vĩnh Hồ",
        "category": "Ẩm thực, nghỉ ngơi",
        "rating": 4.2,
        "avg_price": 0,
        "city": "Hà Nội",
        "district": "Đống Đa",
        "latitude": 21.0065425,
        "longitude": 105.8193927
    },
    {
        "attraction_id": "b113b13b-c09f-11ed-af0b-04ea5650b820",
        "name": "Quán Bánh mì 35",
        "category": "Ẩm thực, nghỉ ngơi",
        "rating": 4.0,
        "avg_price": 0,
        "city": "Hà Nội",
        "district": "Đống Đa",
        "latitude": 21.008366,
        "longitude": 105.819281
    },
    {
        "attraction_id": "d10be192-c09f-11ed-8be3-04ea5650b820",
        "name": "The Coffee House",
        "category": "Đồ uống, thư giãn",
        "rating": 4.4,
        "avg_price": 0,
        "city": "Hà Nội",
        "district": "Đống Đa",
        "latitude": 21.0093855,
        "longitude": 105.8230799
    },
    {
        "attraction_id": "f7a40512-c09f-11ed-a6aa-04ea5650b820",
        "name": "Cộng Cà Phê Thái Hà",
        "category": "Đồ uống, thư giãn",
        "rating": 4.2,
        "avg_price": 0,
        "city": "Hà Nội",
        "district": "Đống Đa",
        "latitude": 21.0099931,
        "longitude": 105.8231169
    },
    {
        "attraction_id": "1dd11e7b-c0a0-11ed-bf5d-04ea5650b820",
        "name": "Xưởng Cafe Hoàng Cầu",
        "category": "Đồ uống, thư giãn",
        "rating": 4.3,
        "avg_price": 0,
        "city": "Hà Nội",
        "district": "Đống Đa",
        "latitude": 21.0167811,
        "longitude": 105.8189155
    },
    {
        "attraction_id": "56277cff-c0a0-11ed-8f73-04ea5650b820",
        "name": "Tiny Cafe Dreamers",
        "category": "Đồ uống, thư giãn",
        "rating": 4.7,
        "avg_price": 0,
        "city": "Hà Nội",
        "district": "Đống Đa",
        "latitude": 21.018852,
        "longitude": 105.8182481
    },
    {
        "attraction_id": "839fe14d-c0a0-11ed-8d7e-04ea5650b820",
        "name": "Skyline Coffee",
        "category": "Đồ uống, thư giãn",
        "rating": 4.3,
        "avg_price": 0,
        "city": "Hà Nội",
        "district": "Đống Đa",
        "latitude": 21.0165312,
        "longitude": 105.8201233
    },
    {
        "attraction_id": "9e602284-c0a0-11ed-9f9d-04ea5650b820",
        "name": "Công viên Văn hóa Đống Đa",
        "category": "Công viên, văn hóa, lịch sử",
        "rating": 4.5,
        "avg_price": 0,
        "city": "Hà Nội",
        "district": "Đống Đa",
        "latitude": 21.0123871,
        "longitude": 105.8244105
    },
    {
        "attraction_id": "ef3f8a53-c0a0-11ed-a87b-04ea5650b820",
        "name": "Gieo CafeGieo Cafe",
        "category": "Đồ uống, thư giãn",
        "rating": 4.5,
        "avg_price": 0,
        "city": "Hà Nội",
        "district": "Đống Đa",
        "latitude": 21.0143508,
        "longitude": 105.82568
    },
    {
        "attraction_id": "14d5a494-c0a1-11ed-a11d-04ea5650b820",
        "name": "Công Viên 1/6",
        "category": "Công viên, đi dạo, ngắm cảnh",
        "rating": 4.5,
        "avg_price": 0,
        "city": "Hà Nội",
        "district": "Đống Đa",
        "latitude": 21.0175963,
        "longitude": 105.8253484
    },
    {
        "attraction_id": "950ca288-c0a1-11ed-89d0-04ea5650b820",
        "name": "Nhà hát Múa rối Việt Nam",
        "category": "Biểu diễn nghệ thuật dân gian",
        "rating": 4.4,
        "avg_price": 0,
        "city": "Hà Nội",
        "district": "Đống Đa",
        "latitude": 21.0018124,
        "longitude": 105.821916
    },
    {
        "attraction_id": "0eff3142-c0a2-11ed-95b3-04ea5650b820",
        "name": "Vua Chả Cá Giảng Võ",
        "category": "Ẩm thực, nghỉ ngơi",
        "rating": 4.1,
        "avg_price": 0,
        "city": "Hà Nội",
        "district": "Đống Đa",
        "latitude": 21.0236547,
        "longitude": 105.8223253
    },
    {
        "attraction_id": "44b42684-c0a2-11ed-84f1-04ea5650b820",
        "name": "The Coffee House Hào Nam",
        "category": "Đồ uống, thư giãn",
        "rating": 4.1,
        "avg_price": 0,
        "city": "Hà Nội",
        "district": "Đống Đa",
        "latitude": 21.0262238,
        "longitude": 105.8286583
    },
    {
        "attraction_id": "bcf05e24-c0a2-11ed-98b9-04ea5650b820",
        "name": "Bánh Xèo Tôn Đức Thắng",
        "category": "Ẩm thực, nghỉ ngơi",
        "rating": 4.3,
        "avg_price": 0,
        "city": "Hà Nội",
        "district": "Đống Đa",
        "latitude": 21.0266067,
        "longitude": 105.8345068
    },
    {
        "attraction_id": "e3bd6f6d-c0a2-11ed-9c15-04ea5650b820",
        "name": "Cháo Hồng Lương Sử",
        "category": "Ẩm thực, nghỉ ngơi",
        "rating": 4.3,
        "avg_price": 0,
        "city": "Hà Nội",
        "district": "Đống Đa",
        "latitude": 21.0252021,
        "longitude": 105.8361315
    },
    {
        "attraction_id": "0edb2448-c0a3-11ed-8410-04ea5650b820",
        "name": "Buffet Chay Hương Thiền",
        "category": "Ẩm thực chay",
        "rating": 4.2,
        "avg_price": 0,
        "city": "Hà Nội",
        "district": "Đống Đa",
        "latitude": 21.0169765,
        "longitude": 105.8305753
    },
    {
        "attraction_id": "c6889f14-c0a3-11ed-aca7-04ea5650b820",
        "name": "Bánh Đúc Nóng Trung Tự",
        "category": "Ẩm thực, nghỉ ngơi",
        "rating": 4.3,
        "avg_price": 0,
        "city": "Hà Nội",
        "district": "Đống Đa",
        "latitude": 21.0089939,
        "longitude": 105.8331489
    },
    {
        "attraction_id": "101c1acb-c0a4-11ed-8f78-04ea5650b820",
        "name": "Chùa Bộc",
        "category": "Văn hóa tôn giáo, tâm linh",
        "rating": 4.5,
        "avg_price": 0,
        "city": "Hà Nội",
        "district": "Đống Đa",
        "latitude": 21.0085227,
        "longitude": 105.8280883
    },
    {
        "attraction_id": "9ced7b93-c0a4-11ed-a5c9-04ea5650b820",
        "name": "Bánh Mỳ Ô Long",
        "category": "Ẩm thực, nghỉ ngơi",
        "rating": 4.0,
        "avg_price": 0,
        "city": "Hà Nội",
        "district": "Đống Đa",
        "latitude": 21.0118036,
        "longitude": 105.8293716
    },
    {
        "attraction_id": "bedd9859-c0a4-11ed-80a9-04ea5650b820",
        "name": "Vincom Center Phạm Ngọc Thạch",
        "category": "Trung tâm thương mại",
        "rating": 4.3,
        "avg_price": 0,
        "city": "Hà Nội",
        "district": "Đống Đa",
        "latitude": 21.0067932,
        "longitude": 105.8318891
    },
    {
        "attraction_id": "0461c564-c0a5-11ed-9818-04ea5650b820",
        "name": "Vincom Center Phạm Ngọc Thạch",
        "category": "Trung tâm thương mại",
        "rating": 4.0,
        "avg_price": 0,
        "city": "Hà Nội",
        "district": "Đống Đa",
        "latitude": 21.0067932,
        "longitude": 105.8318891
    },
    {
        "attraction_id": "6568b440-c0a5-11ed-8892-04ea5650b820",
        "name": "Công viên Thống Nhất",
        "category": "Đi dạo, ngắm cảnh",
        "rating": 4.3,
        "avg_price": 0,
        "city": "Hà Nội",
        "district": "Hai Bà Trưng",
        "latitude": 21.0125142,
        "longitude": 105.8451488
    },
    {
        "attraction_id": "c2897c4a-c0a5-11ed-bef8-04ea5650b820",
        "name": "The Sipping Bar - Waterfront",
        "category": "Đồ uống, thư giãn",
        "rating": 4.4,
        "avg_price": 0,
        "city": "Hà Nội",
        "district": "Hai Bà Trưng",
        "latitude": 21.0089943,
        "longitude": 105.8445229
    },
    {
        "attraction_id": "e89c6c33-c0a5-11ed-8cfe-04ea5650b820",
        "name": "Industry Cafe",
        "category": "Đồ uống, thư giãn",
        "rating": 4.0,
        "avg_price": 0,
        "city": "Hà Nội",
        "district": "Hai Bà Trưng",
        "latitude": 21.0122156,
        "longitude": 105.8465458
    },
    {
        "attraction_id": "15bcb63b-c0a6-11ed-838c-04ea5650b820",
        "name": "Ưu Đàm Chay",
        "category": "Ẩm thực chay",
        "rating": 4.4,
        "avg_price": 0,
        "city": "Hà Nội",
        "district": "Hai Bà Trưng",
        "latitude": 21.0182286,
        "longitude": 105.8477127
    },
    {
        "attraction_id": "5433456c-c0a6-11ed-b982-04ea5650b820",
        "name": "MONO Coffee Lab",
        "category": "Đồ uống, thư giãn",
        "rating": 4.6,
        "avg_price": 0,
        "city": "Hà Nội",
        "district": "Hai Bà Trưng",
        "latitude": 21.0176114,
        "longitude": 105.848005
    },
    {
        "attraction_id": "6b48d7df-c0a6-11ed-b227-04ea5650b820",
        "name": "Highlands Coffee Trần Nhân Tông",
        "category": "Đồ uống, thư giãn",
        "rating": 4.6,
        "avg_price": 0,
        "city": "Hà Nội",
        "district": "Hai Bà Trưng",
        "latitude": 21.0169914,
        "longitude": 105.8486247
    },
    {
        "attraction_id": "d266c14f-c0a6-11ed-a9f0-04ea5650b820",
        "name": "Phở Thìn 13 Lò Đúc",
        "category": "Ẩm thực, nghỉ ngơi",
        "rating": 4.2,
        "avg_price": 0,
        "city": "Hà Nội",
        "district": "Hai Bà Trưng",
        "latitude": 21.0177407,
        "longitude": 105.8561734
    },
    {
        "attraction_id": "08e6b3d4-c0a7-11ed-9475-04ea5650b820",
        "name": "Vườn Hoa Pasteur",
        "category": "Công viên, đi dạo, ngắm cảnh",
        "rating": 4.2,
        "avg_price": 0,
        "city": "Hà Nội",
        "district": "Hai Bà Trưng",
        "latitude": 21.014188,
        "longitude": 105.8589426
    },
    {
        "attraction_id": "71cebfff-c0a7-11ed-aa79-04ea5650b820",
        "name": "Highlands Coffee Lò Đúc",
        "category": "Đồ uống, thư giãn",
        "rating": 4.2,
        "avg_price": 0,
        "city": "Hà Nội",
        "district": "Hai Bà Trưng",
        "latitude": 21.0134542,
        "longitude": 105.8580512
    },
    {
        "attraction_id": "85183354-c0a7-11ed-b671-04ea5650b820",
        "name": "Vincom Center Bà Triệu",
        "category": "Trung tâm thương mại",
        "rating": 4.4,
        "avg_price": 0,
        "city": "Hà Nội",
        "district": "Hai Bà Trưng",
        "latitude": 21.0106695,
        "longitude": 105.8486377
    },
    {
        "attraction_id": "5cc88ca1-c0a8-11ed-906b-04ea5650b820",
        "name": "Bánh Cuốn Bà Hoành",
        "category": "Ẩm thực, nghỉ ngơi",
        "rating": 4.1,
        "avg_price": 0,
        "city": "Hà Nội",
        "district": "Hai Bà Trưng",
        "latitude": 21.0145324,
        "longitude": 105.8469658
    },
    {
        "attraction_id": "93a4b982-c0a8-11ed-86cd-04ea5650b820",
        "name": "Vua Chả Cá Mai Hắc Đế",
        "category": "Ẩm thực, nghỉ ngơi",
        "rating": 4.2,
        "avg_price": 0,
        "city": "Hà Nội",
        "district": "Hai Bà Trưng",
        "latitude": 21.0138403,
        "longitude": 105.8479452
    },
    {
        "attraction_id": "bc118f1d-c0a8-11ed-93da-04ea5650b820",
        "name": "Starbucks Ba Trieu",
        "category": "Đồ uống, thư giãn",
        "rating": 4.1,
        "avg_price": 0,
        "city": "Hà Nội",
        "district": "Hai Bà Trưng",
        "latitude": 21.0100094,
        "longitude": 105.8487624
    },
    {
        "attraction_id": "0633986f-c0a9-11ed-9df7-04ea5650b820",
        "name": "Highlands Coffee Trần Đại Nghĩa",
        "category": "Đồ uống, thư giãn",
        "rating": 4.3,
        "avg_price": 0,
        "city": "Hà Nội",
        "district": "Hai Bà Trưng",
        "latitude": 21.0046784,
        "longitude": 105.8435213
    },
    {
        "attraction_id": "289844eb-c0a9-11ed-bf72-04ea5650b820",
        "name": "Công viên Tuổi Trẻ Thủ Đô",
        "category": "Công viên, đi dạo, ngắm cảnh",
        "rating": 4.1,
        "avg_price": 0,
        "city": "Hà Nội",
        "district": "Hai Bà Trưng",
        "latitude": 21.0041536,
        "longitude": 105.8551999
    },
    {
        "attraction_id": "8e29749d-c0a9-11ed-a16f-04ea5650b820",
        "name": "Vincom Mega Mall Times City",
        "category": "Trung tâm thương mại",
        "rating": 4.4,
        "avg_price": 0,
        "city": "Hà Nội",
        "district": "Hai Bà Trưng",
        "latitude": 20.9955648,
        "longitude": 105.868612
    },
    {
        "attraction_id": "c004dc1b-c0a9-11ed-969a-04ea5650b820",
        "name": "VinKE & Thủy Cung Times City",
        "category": "Thủy cung, vui chơi giải trí",
        "rating": 4.4,
        "avg_price": 0,
        "city": "Hà Nội",
        "district": "Hai Bà Trưng",
        "latitude": 20.9972722,
        "longitude": 105.866725
    },
    {
        "attraction_id": "9002d305-bfeb-11ed-af00-04ea5650b820",
        "name": "Phê La Hàng Cót",
        "category": "Đồ uống, thư giãn",
        "rating": 4.0,
        "avg_price": 0,
        "city": "Hà Nội",
        "district": "Hoàn Kiếm",
        "latitude": 21.0390389,
        "longitude": 105.8472189
    },
    {
        "attraction_id": "ea31b14e-bfed-11ed-8af5-04ea5650b820",
        "name": "Cháo Sườn Sụn Huyền Anh Đồng Xuân",
        "category": "Ẩm thực, nghỉ ngơi",
        "rating": 4.2,
        "avg_price": 0,
        "city": "Hà Nội",
        "district": "Hoàn Kiếm",
        "latitude": 21.038074,
        "longitude": 105.848421
    },
    {
        "attraction_id": "28445504-bfee-11ed-8371-04ea5650b820",
        "name": "KAFA Café",
        "category": "Đồ uống, thư giãn",
        "rating": 4.2,
        "avg_price": 0,
        "city": "Hà Nội",
        "district": "Hoàn Kiếm",
        "latitude": 21.0375402,
        "longitude": 105.8459583
    },
    {
        "attraction_id": "41c08861-bfef-11ed-b9bb-04ea5650b820",
        "name": "Dream Beans Coffee Roastery",
        "category": "Đồ uống, thư giãn",
        "rating": 4.2,
        "avg_price": 0,
        "city": "Hà Nội",
        "district": "Hoàn Kiếm",
        "latitude": 21.0336867,
        "longitude": 105.8449553
    },
    {
        "attraction_id": "92a5d3f0-bfef-11ed-a93f-04ea5650b820",
        "name": "Phố đường tàu Hà Nội",
        "category": "Chụp ảnh, trải nghiệm, thư giãn",
        "rating": 3.7,
        "avg_price": 0,
        "city": "Hà Nội",
        "district": "Hoàn Kiếm",
        "latitude": 21.0308866,
        "longitude": 105.8445217
    },
    {
        "attraction_id": "38903440-bff0-11ed-b9e4-04ea5650b820",
        "name": "Phở đường tàu ( Various Beef Noodles)",
        "category": "Ẩm thực, nghỉ ngơi",
        "rating": 4.3,
        "avg_price": 0,
        "city": "Hà Nội",
        "district": "Hoàn Kiếm",
        "latitude": 21.0308866,
        "longitude": 105.8445217
    },
    {
        "attraction_id": "b7a64181-bff1-11ed-984e-04ea5650b820",
        "name": "Phở Biên",
        "category": "Ẩm thực, nghỉ ngơi",
        "rating": 4.2,
        "avg_price": 0,
        "city": "Hà Nội",
        "district": "Hoàn Kiếm",
        "latitude": 21.0187638,
        "longitude": 105.8543546
    },
    {
        "attraction_id": "cf3ae8b1-bff1-11ed-8f86-04ea5650b820",
        "name": "Xôi Yến",
        "category": "Ẩm thực, nghỉ ngơi",
        "rating": 4.2,
        "avg_price": 0,
        "city": "Hà Nội",
        "district": "Hoàn Kiếm",
        "latitude": 21.0201757,
        "longitude": 105.8538662
    },
    {
        "attraction_id": "34bcb1b9-bff2-11ed-91af-04ea5650b820",
        "name": "Maison Sen Buffet",
        "category": "Ẩm thực, nghỉ ngơi",
        "rating": 4.8,
        "avg_price": 0,
        "city": "Hà Nội",
        "district": "Hoàn Kiếm",
        "latitude": 21.0208308,
        "longitude": 105.8469659
    },
    {
        "attraction_id": "7e4bee87-bff2-11ed-ab44-04ea5650b820",
        "name": "THE WISELANDS Coffee",
        "category": "Đồ uống, thư giãn",
        "rating": 4.8,
        "avg_price": 0,
        "city": "Hà Nội",
        "district": "Hoàn Kiếm",
        "latitude": 21.0207514,
        "longitude": 105.8463528
    },
    {
        "attraction_id": "9a2aa227-bff2-11ed-a830-04ea5650b820",
        "name": "Cung Văn hóa Lao động Hữu nghị Việt - Xô",
        "category": "Văn hóa, lịch sử, nghệ thuật",
        "rating": 4.2,
        "avg_price": 0,
        "city": "Hà Nội",
        "district": "Hoàn Kiếm",
        "latitude": 21.0222877,
        "longitude": 105.8438624
    },
    {
        "attraction_id": "bb27040a-c00f-11ed-ba94-04ea5650b820",
        "name": "Nhà hàng chay Sadhu",
        "category": "Ẩm thực chay",
        "rating": 4.5,
        "avg_price": 0,
        "city": "Hà Nội",
        "district": "Hoàn Kiếm",
        "latitude": 21.025159,
        "longitude": 105.8422912
    },
    {
        "attraction_id": "d8b899cb-c00f-11ed-b3bb-04ea5650b820",
        "name": "Highlands Coffee Lê Duẩn",
        "category": "Đồ uống, thư giãn",
        "rating": 4.1,
        "avg_price": 0,
        "city": "Hà Nội",
        "district": "Hoàn Kiếm",
        "latitude": 21.0246501,
        "longitude": 105.8421837
    },
    {
        "attraction_id": "0c0a4703-c010-11ed-8365-04ea5650b820",
        "name": "Kem Trứng Bà Khanh",
        "category": "Ẩm thực, nghỉ ngơi",
        "rating": 4.2,
        "avg_price": 0,
        "city": "Hà Nội",
        "district": "Hoàn Kiếm",
        "latitude": 21.0265502,
        "longitude": 105.8441815
    },
    {
        "attraction_id": "4a58f3fe-c010-11ed-8200-04ea5650b820",
        "name": "Namaste Ha Noi",
        "category": "Ẩm thực, nghỉ ngơi",
        "rating": 4.3,
        "avg_price": 0,
        "city": "Hà Nội",
        "district": "Hoàn Kiếm",
        "latitude": 21.025917,
        "longitude": 105.8440727
    },
    {
        "attraction_id": "771b2b7f-c010-11ed-b087-04ea5650b820",
        "name": "Tam An Lac",
        "category": "Ẩm thực chay",
        "rating": 4.4,
        "avg_price": 0,
        "city": "Hà Nội",
        "district": "Hoàn Kiếm",
        "latitude": 21.0253641,
        "longitude": 105.8442301
    },
    {
        "attraction_id": "d93f5a67-c010-11ed-ba9d-04ea5650b820",
        "name": "Bami Bread Bánh Mì Hội An",
        "category": "Ẩm thực, nghỉ ngơi",
        "rating": 4.4,
        "avg_price": 0,
        "city": "Hà Nội",
        "district": "Hoàn Kiếm",
        "latitude": 21.0237817,
        "longitude": 105.8435723
    },
    {
        "attraction_id": "0a99c9e9-c011-11ed-bafc-04ea5650b820",
        "name": "Nhà hàng Chay Vị Lai",
        "category": "Ẩm thực chay",
        "rating": 4.1,
        "avg_price": 0,
        "city": "Hà Nội",
        "district": "Hoàn Kiếm",
        "latitude": 21.0240622,
        "longitude": 105.845613
    },
    {
        "attraction_id": "415e24ce-c011-11ed-b488-04ea5650b820",
        "name": "Quán Chay Bồ Đề",
        "category": "Ẩm thực chay",
        "rating": 4.2,
        "avg_price": 0,
        "city": "Hà Nội",
        "district": "Hoàn Kiếm",
        "latitude": 21.024190, 
        "longitude": 105.844927
    },
    {
        "attraction_id": "6b25dcf1-c011-11ed-b811-04ea5650b820",
        "name": "Chùa Quán Sứ",
        "category": "Văn hóa tôn giáo, tâm linh",
        "rating": 4.6,
        "avg_price": 0,
        "city": "Hà Nội",
        "district": "Hoàn Kiếm",
        "latitude": 21.0240868,
        "longitude": 105.8456059
    },
    {
        "attraction_id": "cdf8dbe9-c011-11ed-a0ae-04ea5650b820",
        "name": "Bảo tàng Công An Hà Nội",
        "category": "Văn hóa, lịch sử, nghệ thuật",
        "rating": 4.1,
        "avg_price": 0,
        "city": "Hà Nội",
        "district": "Hoàn Kiếm",
        "latitude": 21.024552, 
        "longitude": 105.845881
    },
    {
        "attraction_id": "15bf1552-c012-11ed-954c-04ea5650b820",
        "name": "San Ho seafood restaurant",
        "category": "Ẩm thực, nghỉ ngơi",
        "rating": 4.3,
        "avg_price": 0,
        "city": "Hà Nội",
        "district": "Hoàn Kiếm",
        "latitude": 21.0246667, 
        "longitude": 105.8456154
    },
    {
        "attraction_id": "49418746-c012-11ed-94ac-04ea5650b820",
        "name": "Di tích Nhà tù Hỏa Lò",
        "category": "Văn hóa, lịch sử, nghệ thuật",
        "rating": 4.4,
        "avg_price": 0,
        "city": "Hà Nội",
        "district": "Hoàn Kiếm",
        "latitude": 21.0251284,
        "longitude": 105.845766
    },
    {
        "attraction_id": "6a6d27ae-c012-11ed-9b76-04ea5650b820",
        "name": "Bún riêu Huyền Thu",
        "category": "Ẩm thực, nghỉ ngơi",
        "rating": 4.2,
        "avg_price": 0,
        "city": "Hà Nội",
        "district": "Hoàn Kiếm",
        "latitude": 21.0253309,
        "longitude": 105.8486916
    },
    {
        "attraction_id": "df407193-c012-11ed-9306-04ea5650b820",
        "name": "Trung Nguyên Legend Café",
        "category": "Đồ uống, thư giãn",
        "rating": 4.2,
        "avg_price": 0,
        "city": "Hà Nội",
        "district": "Hoàn Kiếm",
        "latitude": 21.025524, 
        "longitude": 105.849033
    },
    {
        "attraction_id": "0502961f-c013-11ed-9446-04ea5650b820",
        "name": "Phê La Lý Thường Kiệt",
        "category": "Đồ uống, thư giãn",
        "rating": 4.0,
        "avg_price": 0,
        "city": "Hà Nội",
        "district": "Hoàn Kiếm",
        "latitude": 21.0229511, 
        "longitude": 105.8495284
    },
    {
        "attraction_id": "5e0faa4c-c013-11ed-9210-04ea5650b820",
        "name": "Bún Đậu Cô Tuyến Mắm Tôm Hàng Khay",
        "category": "Ẩm thực, nghỉ ngơi",
        "rating": 4.1,
        "avg_price": 0,
        "city": "Hà Nội",
        "district": "Hoàn Kiếm",
        "latitude": 21.0252216, 
        "longitude": 105.8515057
    },
    {
        "attraction_id": "bdf0175c-c013-11ed-a3ce-04ea5650b820",
        "name": "Bảo Tàng Phụ Nữ Việt Nam",
        "category": "Văn hóa, lịch sử, nghệ thuật",
        "rating": 4.3,
        "avg_price": 0,
        "city": "Hà Nội",
        "district": "Hoàn Kiếm",
        "latitude": 21.0232954,
        "longitude": 105.8513979
    },
    {
        "attraction_id": "6279953b-c020-11ed-875d-04ea5650b820",
        "name": "The Coffee House",
        "category": "Đồ uống, thư giãn",
        "rating": 4.4,
        "avg_price": 0,
        "city": "Hà Nội",
        "district": "Hoàn Kiếm",
        "latitude": 21.0243561,
        "longitude": 105.8533417
    },
    {
        "attraction_id": "c6947ec4-c020-11ed-beba-04ea5650b820",
        "name": "Tràng Tiền Plaza",
        "category": "Trung tâm thương mại",
        "rating": 4.6,
        "avg_price": 0,
        "city": "Hà Nội",
        "district": "Hoàn Kiếm",
        "latitude": 21.0244969,
        "longitude": 105.8531422
    },
    {
        "attraction_id": "1ed8282c-c021-11ed-92a4-04ea5650b820",
        "name": "Kem Tràng Tiền Hồ Gươm",
        "category": "Ẩm thực, nghỉ ngơi",
        "rating": 4.4,
        "avg_price": 0,
        "city": "Hà Nội",
        "district": "Hoàn Kiếm",
        "latitude": 21.024901,
        "longitude": 105.8548414
    },
    {
        "attraction_id": "48156782-c021-11ed-b31d-04ea5650b820",
        "name": "Cyril Kongo Hanoi Gallery",
        "category": "Triển lãm, nghệ thuật",
        "rating": 4.8,
        "avg_price": 0,
        "city": "Hà Nội",
        "district": "Hoàn Kiếm",
        "latitude": 21.0242966,
        "longitude": 105.8556412
    },
    {
        "attraction_id": "9f5d10c9-c021-11ed-9626-04ea5650b820",
        "name": "Green Palm Gallery",
        "category": "Triển lãm, nghệ thuật",
        "rating": 4.7,
        "avg_price": 0,
        "city": "Hà Nội",
        "district": "Hoàn Kiếm",
        "latitude": 21.0239262,
        "longitude": 105.8557922
    },
    {
        "attraction_id": "bed5a3d5-c021-11ed-bdd2-04ea5650b820",
        "name": "Quán Kem Xôi Thu Nga",
        "category": "Ẩm thực, nghỉ ngơi",
        "rating": 4.1,
        "avg_price": 0,
        "city": "Hà Nội",
        "district": "Hoàn Kiếm",
        "latitude": 21.0234247,
        "longitude": 105.8565134
    },
    {
        "attraction_id": "0fce93c0-c022-11ed-b311-04ea5650b820",
        "name": "Nhà hát Lớn Hà Nội",
        "category": "Văn hóa, lịch sử, nghệ thuật",
        "rating": 4.6,
        "avg_price": 0,
        "city": "Hà Nội",
        "district": "Hoàn Kiếm",
        "latitude": 21.0250368,
        "longitude": 105.8569155
    },
    {
        "attraction_id": "7dad7b4a-c022-11ed-bf75-04ea5650b820",
        "name": "Bảo tàng Lịch sử Quốc gia",
        "category": "Văn hóa, lịch sử, nghệ thuật",
        "rating": 4.2,
        "avg_price": 0,
        "city": "Hà Nội",
        "district": "Hoàn Kiếm",
        "latitude": 21.0256131,
        "longitude": 105.8568302
    },
    {
        "attraction_id": "a19e98ff-c022-11ed-96ed-04ea5650b820",
        "name": "Phở 10 Lý Quốc Sư",
        "category": "Ẩm thực, nghỉ ngơi",
        "rating": 4.1,
        "avg_price": 0,
        "city": "Hà Nội",
        "district": "Hoàn Kiếm",
        "latitude": 21.0293542,
        "longitude": 105.8476047
    },
    {
        "attraction_id": "f3694a30-c022-11ed-af2e-04ea5650b820",
        "name": "Nhà Thờ Lớn Hà Nội",
        "category": "Văn hóa tôn giáo, tâm linh",
        "rating": 4.6,
        "avg_price": 0,
        "city": "Hà Nội",
        "district": "Hoàn Kiếm",
        "latitude": 21.0288867,
        "longitude": 105.8483064
    },
    {
        "attraction_id": "268e1335-c023-11ed-ac04-04ea5650b820",
        "name": "Quảng Trường Đông Kinh Nghĩa Thục",
        "category": "Đi dạo, ngắm cảnh",
        "rating": 4.5,
        "avg_price": 0,
        "city": "Hà Nội",
        "district": "Hoàn Kiếm",
        "latitude": 21.0319417,
        "longitude": 105.8506946
    },
    {
        "attraction_id": "653b2d09-c023-11ed-96ee-04ea5650b820",
        "name": "Hồ Gươm (Phố đi bộ hồ Gươm)",
        "category": "Đi dạo, ngắm cảnh",
        "rating": 4.7,
        "avg_price": 0,
        "city": "Hà Nội",
        "district": "Hoàn Kiếm",
        "latitude": 21.0293568,
        "longitude": 105.8527866
    },
    {
        "attraction_id": "becd32af-c023-11ed-b096-04ea5650b820",
        "name": "Tượng Đài Vua Lý Thái Tổ",
        "category": "Đi dạo, ngắm cảnh",
        "rating": 4.6,
        "avg_price": 0,
        "city": "Hà Nội",
        "district": "Hoàn Kiếm",
        "latitude": 21.0276668,
        "longitude": 105.8543576
    },
    {
        "attraction_id": "df27e6ca-c023-11ed-ba9f-04ea5650b820",
        "name": "Đền Ngọc Sơn",
        "category": "Văn hóa tôn giáo, tâm linh",
        "rating": 4.4,
        "avg_price": 0,
        "city": "Hà Nội",
        "district": "Hoàn Kiếm",
        "latitude": 21.0305771,
        "longitude": 105.8523808
    },
    {
        "attraction_id": "13795436-c024-11ed-8ad3-04ea5650b820",
        "name": "Khu Phố Cổ Hà Nội",
        "category": "Trải nghiệm đa dạng, văn hóa, ẩm thực,...",
        "rating": 4.5,
        "avg_price": 0,
        "city": "Hà Nội",
        "district": "Hoàn Kiếm",
        "latitude": 21.0334927,
        "longitude": 105.8494289
    },
    {
        "attraction_id": "823b2a5a-c024-11ed-a7ea-04ea5650b820",
        "name": "Khu Phố Cổ Hà Nội",
        "category": "Trải nghiệm đa dạng, văn hóa, ẩm thực,...",
        "rating": 4.5,
        "avg_price": 0,
        "city": "Hà Nội",
        "district": "Hoàn Kiếm",
        "latitude": 21.0334927,
        "longitude": 105.8494289
    },
    {
        "attraction_id": "9bb5ab26-c21c-11ed-a7ca-996b3baab59c",
        "name": "Hồ Đồng Đò",
        "category": "Du lịch nghỉ dưỡng, cắm trại, bơi thuyền, ngắm cảnh",
        "rating": 4.3,
        "avg_price": 0,
        "city": "Hà Nội",
        "district": "Sóc Sơn",
        "latitude": 21.3131243,
        "longitude": 105.7678016
    },
    {
        "attraction_id": "f40e2ee2-c21c-11ed-a7ca-996b3baab59c",
        "name": "Điểm Cắm Trại Hồ Hàm Lợn",
        "category": "Cắm trại, leo núi, trekking",
        "rating": 4.0,
        "avg_price": 0,
        "city": "Hà Nội",
        "district": "Sóc Sơn",
        "latitude": 21.3034137,
        "longitude": 105.7979736
    },
    {
        "attraction_id": "006479ac-c21e-11ed-a7ca-996b3baab59c",
        "name": "Đền Gióng Sóc Sơn",
        "category": "Văn hóa tôn giáo, tâm linh",
        "rating": 4.6,
        "avg_price": 0,
        "city": "Hà Nội",
        "district": "Sóc Sơn",
        "latitude": 21.290399,
        "longitude": 105.8149652
    },
    {
        "attraction_id": "5f2ba14a-c21e-11ed-a7ca-996b3baab59c",
        "name": "Du lịch sinh thái Bản Rõm",
        "category": "Du lịch sinh thái, cắm trại",
        "rating": 4.6,
        "avg_price": 0,
        "city": "Hà Nội",
        "district": "Sóc Sơn",
        "latitude": 21.2759461,
        "longitude": 105.8144829
    },
    {
        "attraction_id": "98b882c0-c21e-11ed-a7ca-996b3baab59c",
        "name": "Việt Phủ Thành Chương",
        "category": "Kiến trúc, nghệ thuật",
        "rating": 4.6,
        "avg_price": 0,
        "city": "Hà Nội",
        "district": "Sóc Sơn",
        "latitude": 21.2759461,
        "longitude": 105.8144829
    },
    {
        "attraction_id": "0f82dcb4-c0ab-11ed-b5c2-04ea5650b820",
        "name": "Nhà văn hóa quận Thanh Xuân",
        "category": "Tổ hợp thể thao, đi dạo ngắm cảnh",
        "rating": 4.1,
        "avg_price": 0,
        "city": "Hà Nội",
        "district": "Thanh Xuân",
        "latitude": 21.0028845,
        "longitude": 105.7964961
    },
    {
        "attraction_id": "147aa434-c0ab-11ed-bf11-04ea5650b820",
        "name": "Bún Bò Huế Ngự Uyển",
        "category": "Ẩm thực, nghỉ ngơi",
        "rating": 4.9,
        "avg_price": 0,
        "city": "Hà Nội",
        "district": "Thanh Xuân",
        "latitude": 20.9986729,
        "longitude": 105.8014333
    },
    {
        "attraction_id": "5918f6b8-c0ab-11ed-9aea-04ea5650b820",
        "name": "Trill Rooftop Cafe",
        "category": "Đồ uống, thư giãn",
        "rating": 4.2,
        "avg_price": 0,
        "city": "Hà Nội",
        "district": "Thanh Xuân",
        "latitude": 21.0027447,
        "longitude": 105.8043097
    },
    {
        "attraction_id": "72b42a78-c0ab-11ed-aaf6-04ea5650b820",
        "name": "Trung tâm Nghệ thuật đương đại Vincom",
        "category": "Triển lãm, nghệ thuật",
        "rating": 4.6,
        "avg_price": 0,
        "city": "Hà Nội",
        "district": "Thanh Xuân",
        "latitude": 21.0024828,
        "longitude": 105.814882
    },
    {
        "attraction_id": "b374fa84-c0ab-11ed-b03d-04ea5650b820",
        "name": "Vinhomes Royal City",
        "category": "Trung tâm thương mại",
        "rating": 4.5,
        "avg_price": 0,
        "city": "Hà Nội",
        "district": "Thanh Xuân",
        "latitude": 21.0019035,
        "longitude": 105.8155521
    },
    {
        "attraction_id": "d6e1ea89-c0ab-11ed-af77-04ea5650b820",
        "name": "Vinhomes Royal City",
        "category": "Trung tâm thương mại",
        "rating": 4.5,
        "avg_price": 0,
        "city": "Hà Nội",
        "district": "Thanh Xuân",
        "latitude": 21.0019035,
        "longitude": 105.8155521
    }
]