[
    {
        "attraction_id": "9002d305-bfeb-11ed-af00-04ea5650b820",
        "name": "Phê La Hàng Cót",
        "category": "Đồ uống, thư giãn",
        "rating": 4.0,
        "avg_price": 0,
        "city": "Hà Nội",
        "district": "Hoàn Kiếm",
        "latitude": 21.0390389,
        "longitude": 105.8472189
    },
    {
        "attraction_id": "ea31b14e-bfed-11ed-8af5-04ea5650b820",
        "name": "Cháo Sườn Sụn Huyền Anh Đồng Xuân",
        "category": "Ẩm thực, nghỉ ngơi",
        "rating": 4.2,
        "avg_price": 0,
        "city": "Hà Nội",
        "district": "Hoàn Kiếm",
        "latitude": 21.038074,
        "longitude": 105.848421
    },
    {
        "attraction_id": "28445504-bfee-11ed-8371-04ea5650b820",
        "name": "KAFA Café",
        "category": "Đồ uống, thư giãn",
        "rating": 4.2,
        "avg_price": 0,
        "city": "Hà Nội",
        "district": "Hoàn Kiếm",
        "latitude": 21.0375402,
        "longitude": 105.8459583
    },
    {
        "attraction_id": "41c08861-bfef-11ed-b9bb-04ea5650b820",
        "name": "Dream Beans Coffee Roastery",
        "category": "Đồ uống, thư giãn",
        "rating": 4.2,
        "avg_price": 0,
        "city": "Hà Nội",
        "district": "Hoàn Kiếm",
        "latitude": 21.0336867,
        "longitude": 105.8449553
    },
    {
        "attraction_id": "92a5d3f0-bfef-11ed-a93f-04ea5650b820",
        "name": "Phố đường tàu Hà Nội",
        "category": "Chụp ảnh, trải nghiệm, thư giãn",
        "rating": 3.7,
        "avg_price": 0,
        "city": "Hà Nội",
        "district": "Hoàn Kiếm",
        "latitude": 21.0308866,
        "longitude": 105.8445217
    },
    {
        "attraction_id": "38903440-bff0-11ed-b9e4-04ea5650b820",
        "name": "Phở đường tàu ( Various Beef Noodles)",
        "category": "Ẩm thực, nghỉ ngơi",
        "rating": 4.3,
        "avg_price": 0,
        "city": "Hà Nội",
        "district": "Hoàn Kiếm",
        "latitude": 21.0308866,
        "longitude": 105.8445217
    },
    {
        "attraction_id": "b7a64181-bff1-11ed-984e-04ea5650b820",
        "name": "Phở Biên",
        "category": "Ẩm thực, nghỉ ngơi",
        "rating": 4.2,
        "avg_price": 0,
        "city": "Hà Nội",
        "district": "Hoàn Kiếm",
        "latitude": 21.0187638,
        "longitude": 105.8543546
    },
    {
        "attraction_id": "cf3ae8b1-bff1-11ed-8f86-04ea5650b820",
        "name": "Xôi Yến",
        "category": "Ẩm thực, nghỉ ngơi",
        "rating": 4.2,
        "avg_price": 0,
        "city": "Hà Nội",
        "district": "Hoàn Kiếm",
        "latitude": 21.0201757,
        "longitude": 105.8538662
    },
    {
        "attraction_id": "34bcb1b9-bff2-11ed-91af-04ea5650b820",
        "name": "Maison Sen Buffet",
        "category": "Ẩm thực, nghỉ ngơi",
        "rating": 4.8,
        "avg_price": 0,
        "city": "Hà Nội",
        "district": "Hoàn Kiếm",
        "latitude": 21.0208308,
        "longitude": 105.8469659
    },
    {
        "attraction_id": "7e4bee87-bff2-11ed-ab44-04ea5650b820",
        "name": "THE WISELANDS Coffee",
        "category": "Đồ uống, thư giãn",
        "rating": 4.8,
        "avg_price": 0,
        "city": "Hà Nội",
        "district": "Hoàn Kiếm",
        "latitude": 21.0207514,
        "longitude": 105.8463528
    },
    {
        "attraction_id": "9a2aa227-bff2-11ed-a830-04ea5650b820",
        "name": "Cung Văn hóa Lao động Hữu nghị Việt - Xô",
        "category": "Văn hóa, lịch sử, nghệ thuật",
        "rating": 4.2,
        "avg_price": 0,
        "city": "Hà Nội",
        "district": "Hoàn Kiếm",
        "latitude": 21.0222877,
        "longitude": 105.8438624
    },
    {
        "attraction_id": "bb27040a-c00f-11ed-ba94-04ea5650b820",
        "name": "Nhà hàng chay Sadhu",
        "category": "Ẩm thực chay",
        "rating": 4.5,
        "avg_price": 0,
        "city": "Hà Nội",
        "district": "Hoàn Kiếm",
        "latitude": 21.025159,
        "longitude": 105.8422912
    },
    {
        "attraction_id": "d8b899cb-c00f-11ed-b3bb-04ea5650b820",
        "name": "Highlands Coffee Lê Duẩn",
        "category": "Đồ uống, thư giãn",
        "rating": 4.1,
        "avg_price": 0,
        "city": "Hà Nội",
        "district": "Hoàn Kiếm",
        "latitude": 21.0246501,
        "longitude": 105.8421837
    },
    {
        "attraction_id": "0c0a4703-c010-11ed-8365-04ea5650b820",
        "name": "Kem Trứng Bà Khanh",
        "category": "Ẩm thực, nghỉ ngơi",
        "rating": 4.2,
        "avg_price": 0,
        "city": "Hà Nội",
        "district": "Hoàn Kiếm",
        "latitude": 21.0265502,
        "longitude": 105.8441815
    },
    {
        "attraction_id": "4a58f3fe-c010-11ed-8200-04ea5650b820",
        "name": "Namaste Ha Noi",
        "category": "Ẩm thực, nghỉ ngơi",
        "rating": 4.3,
        "avg_price": 0,
        "city": "Hà Nội",
        "district": "Hoàn Kiếm",
        "latitude": 21.025917,
        "longitude": 105.8440727
    },
    {
        "attraction_id": "771b2b7f-c010-11ed-b087-04ea5650b820",
        "name": "Tam An Lac",
        "category": "Ẩm thực chay",
        "rating": 4.4,
        "avg_price": 0,
        "city": "Hà Nội",
        "district": "Hoàn Kiếm",
        "latitude": 21.0253641,
        "longitude": 105.8442301
    },
    {
        "attraction_id": "d93f5a67-c010-11ed-ba9d-04ea5650b820",
        "name": "Bami Bread Bánh Mì Hội An",
        "category": "Ẩm thực, nghỉ ngơi",
        "rating": 4.4,
        "avg_price": 0,
        "city": "Hà Nội",
        "district": "Hoàn Kiếm",
        "latitude": 21.0237817,
        "longitude": 105.8435723
    },
    {
        "attraction_id": "0a99c9e9-c011-11ed-bafc-04ea5650b820",
        "name": "Nhà hàng Chay Vị Lai",
        "category": "Ẩm thực chay",
        "rating": 4.1,
        "avg_price": 0,
        "city": "Hà Nội",
        "district": "Hoàn Kiếm",
        "latitude": 21.0240622,
        "longitude": 105.845613
    },
    {
        "attraction_id": "415e24ce-c011-11ed-b488-04ea5650b820",
        "name": "Quán Chay Bồ Đề",
        "category": "Ẩm thực chay",
        "rating": 4.2,
        "avg_price": 0,
        "city": "Hà Nội",
        "district": "Hoàn Kiếm",
        "latitude": 21.024190, 
        "longitude": 105.844927
    },
    {
        "attraction_id": "6b25dcf1-c011-11ed-b811-04ea5650b820",
        "name": "Chùa Quán Sứ",
        "category": "Văn hóa tôn giáo, tâm linh",
        "rating": 4.6,
        "avg_price": 0,
        "city": "Hà Nội",
        "district": "Hoàn Kiếm",
        "latitude": 21.0240868,
        "longitude": 105.8456059
    },
    {
        "attraction_id": "cdf8dbe9-c011-11ed-a0ae-04ea5650b820",
        "name": "Bảo tàng Công An Hà Nội",
        "category": "Văn hóa, lịch sử, nghệ thuật",
        "rating": 4.1,
        "avg_price": 0,
        "city": "Hà Nội",
        "district": "Hoàn Kiếm",
        "latitude": 21.024552, 
        "longitude": 105.845881
    },
    {
        "attraction_id": "15bf1552-c012-11ed-954c-04ea5650b820",
        "name": "San Ho seafood restaurant",
        "category": "Ẩm thực, nghỉ ngơi",
        "rating": 4.3,
        "avg_price": 0,
        "city": "Hà Nội",
        "district": "Hoàn Kiếm",
        "latitude": 21.0246667, 
        "longitude": 105.8456154
    },
    {
        "attraction_id": "49418746-c012-11ed-94ac-04ea5650b820",
        "name": "Di tích Nhà tù Hỏa Lò",
        "category": "Văn hóa, lịch sử, nghệ thuật",
        "rating": 4.4,
        "avg_price": 0,
        "city": "Hà Nội",
        "district": "Hoàn Kiếm",
        "latitude": 21.0251284,
        "longitude": 105.845766
    },
    {
        "attraction_id": "6a6d27ae-c012-11ed-9b76-04ea5650b820",
        "name": "Bún riêu Huyền Thu",
        "category": "Ẩm thực, nghỉ ngơi",
        "rating": 4.2,
        "avg_price": 0,
        "city": "Hà Nội",
        "district": "Hoàn Kiếm",
        "latitude": 21.0253309,
        "longitude": 105.8486916
    },
    {
        "attraction_id": "df407193-c012-11ed-9306-04ea5650b820",
        "name": "Trung Nguyên Legend Café",
        "category": "Đồ uống, thư giãn",
        "rating": 4.2,
        "avg_price": 0,
        "city": "Hà Nội",
        "district": "Hoàn Kiếm",
        "latitude": 21.025524, 
        "longitude": 105.849033
    },
    {
        "attraction_id": "0502961f-c013-11ed-9446-04ea5650b820",
        "name": "Phê La Lý Thường Kiệt",
        "category": "Đồ uống, thư giãn",
        "rating": 4.0,
        "avg_price": 0,
        "city": "Hà Nội",
        "district": "Hoàn Kiếm",
        "latitude": 21.0229511, 
        "longitude": 105.8495284
    },
    {
        "attraction_id": "5e0faa4c-c013-11ed-9210-04ea5650b820",
        "name": "Bún Đậu Cô Tuyến Mắm Tôm Hàng Khay",
        "category": "Ẩm thực, nghỉ ngơi",
        "rating": 4.1,
        "avg_price": 0,
        "city": "Hà Nội",
        "district": "Hoàn Kiếm",
        "latitude": 21.0252216, 
        "longitude": 105.8515057
    },
    {
        "attraction_id": "bdf0175c-c013-11ed-a3ce-04ea5650b820",
        "name": "Bảo Tàng Phụ Nữ Việt Nam",
        "category": "Văn hóa, lịch sử, nghệ thuật",
        "rating": 4.3,
        "avg_price": 0,
        "city": "Hà Nội",
        "district": "Hoàn Kiếm",
        "latitude": 21.0232954,
        "longitude": 105.8513979
    },
    {
        "attraction_id": "6279953b-c020-11ed-875d-04ea5650b820",
        "name": "The Coffee House",
        "category": "Đồ uống, thư giãn",
        "rating": 4.4,
        "avg_price": 0,
        "city": "Hà Nội",
        "district": "Hoàn Kiếm",
        "latitude": 21.0243561,
        "longitude": 105.8533417
    },
    {
        "attraction_id": "c6947ec4-c020-11ed-beba-04ea5650b820",
        "name": "Tràng Tiền Plaza",
        "category": "Trung tâm thương mại",
        "rating": 4.6,
        "avg_price": 0,
        "city": "Hà Nội",
        "district": "Hoàn Kiếm",
        "latitude": 21.0244969,
        "longitude": 105.8531422
    },
    {
        "attraction_id": "1ed8282c-c021-11ed-92a4-04ea5650b820",
        "name": "Kem Tràng Tiền Hồ Gươm",
        "category": "Ẩm thực, nghỉ ngơi",
        "rating": 4.4,
        "avg_price": 0,
        "city": "Hà Nội",
        "district": "Hoàn Kiếm",
        "latitude": 21.024901,
        "longitude": 105.8548414
    },
    {
        "attraction_id": "48156782-c021-11ed-b31d-04ea5650b820",
        "name": "Cyril Kongo Hanoi Gallery",
        "category": "Triển lãm, nghệ thuật",
        "rating": 4.8,
        "avg_price": 0,
        "city": "Hà Nội",
        "district": "Hoàn Kiếm",
        "latitude": 21.0242966,
        "longitude": 105.8556412
    },
    {
        "attraction_id": "9f5d10c9-c021-11ed-9626-04ea5650b820",
        "name": "Green Palm Gallery",
        "category": "Triển lãm, nghệ thuật",
        "rating": 4.7,
        "avg_price": 0,
        "city": "Hà Nội",
        "district": "Hoàn Kiếm",
        "latitude": 21.0239262,
        "longitude": 105.8557922
    },
    {
        "attraction_id": "bed5a3d5-c021-11ed-bdd2-04ea5650b820",
        "name": "Quán Kem Xôi Thu Nga",
        "category": "Ẩm thực, nghỉ ngơi",
        "rating": 4.1,
        "avg_price": 0,
        "city": "Hà Nội",
        "district": "Hoàn Kiếm",
        "latitude": 21.0234247,
        "longitude": 105.8565134
    },
    {
        "attraction_id": "0fce93c0-c022-11ed-b311-04ea5650b820",
        "name": "Nhà hát Lớn Hà Nội",
        "category": "Văn hóa, lịch sử, nghệ thuật",
        "rating": 4.6,
        "avg_price": 0,
        "city": "Hà Nội",
        "district": "Hoàn Kiếm",
        "latitude": 21.0250368,
        "longitude": 105.8569155
    },
    {
        "attraction_id": "7dad7b4a-c022-11ed-bf75-04ea5650b820",
        "name": "Bảo tàng Lịch sử Quốc gia",
        "category": "Văn hóa, lịch sử, nghệ thuật",
        "rating": 4.2,
        "avg_price": 0,
        "city": "Hà Nội",
        "district": "Hoàn Kiếm",
        "latitude": 21.0256131,
        "longitude": 105.8568302
    },
    {
        "attraction_id": "a19e98ff-c022-11ed-96ed-04ea5650b820",
        "name": "Phở 10 Lý Quốc Sư",
        "category": "Ẩm thực, nghỉ ngơi",
        "rating": 4.1,
        "avg_price": 0,
        "city": "Hà Nội",
        "district": "Hoàn Kiếm",
        "latitude": 21.0293542,
        "longitude": 105.8476047
    },
    {
        "attraction_id": "f3694a30-c022-11ed-af2e-04ea5650b820",
        "name": "Nhà Thờ Lớn Hà Nội",
        "category": "Văn hóa tôn giáo, tâm linh",
        "rating": 4.6,
        "avg_price": 0,
        "city": "Hà Nội",
        "district": "Hoàn Kiếm",
        "latitude": 21.0288867,
        "longitude": 105.8483064
    },
    {
        "attraction_id": "268e1335-c023-11ed-ac04-04ea5650b820",
        "name": "Quảng Trường Đông Kinh Nghĩa Thục",
        "category": "Đi dạo, ngắm cảnh",
        "rating": 4.5,
        "avg_price": 0,
        "city": "Hà Nội",
        "district": "Hoàn Kiếm",
        "latitude": 21.0319417,
        "longitude": 105.8506946
    },
    {
        "attraction_id": "653b2d09-c023-11ed-96ee-04ea5650b820",
        "name": "Hồ Gươm (Phố đi bộ hồ Gươm)",
        "category": "Đi dạo, ngắm cảnh",
        "rating": 4.7,
        "avg_price": 0,
        "city": "Hà Nội",
        "district": "Hoàn Kiếm",
        "latitude": 21.0293568,
        "longitude": 105.8527866
    },
    {
        "attraction_id": "becd32af-c023-11ed-b096-04ea5650b820",
        "name": "Tượng Đài Vua Lý Thái Tổ",
        "category": "Đi dạo, ngắm cảnh",
        "rating": 4.6,
        "avg_price": 0,
        "city": "Hà Nội",
        "district": "Hoàn Kiếm",
        "latitude": 21.0276668,
        "longitude": 105.8543576
    },
    {
        "attraction_id": "df27e6ca-c023-11ed-ba9f-04ea5650b820",
        "name": "Đền Ngọc Sơn",
        "category": "Văn hóa tôn giáo, tâm linh",
        "rating": 4.4,
        "avg_price": 0,
        "city": "Hà Nội",
        "district": "Hoàn Kiếm",
        "latitude": 21.0305771,
        "longitude": 105.8523808
    },
    {
        "attraction_id": "13795436-c024-11ed-8ad3-04ea5650b820",
        "name": "Khu Phố Cổ Hà Nội",
        "category": "Trải nghiệm đa dạng, văn hóa, ẩm thực,...",
        "rating": 4.5,
        "avg_price": 0,
        "city": "Hà Nội",
        "district": "Hoàn Kiếm",
        "latitude": 21.0334927,
        "longitude": 105.8494289
    },
    {
        "attraction_id": "823b2a5a-c024-11ed-a7ea-04ea5650b820",
        "name": "Khu Phố Cổ Hà Nội",
        "category": "Trải nghiệm đa dạng, văn hóa, ẩm thực,...",
        "rating": 4.5,
        "avg_price": 0,
        "city": "Hà Nội",
        "district": "Hoàn Kiếm",
        "latitude": 21.0334927,
        "longitude": 105.8494289
    }
]