[
    {
        "attraction_id": "39eecfa9-c086-11ed-9546-04ea5650b820",
        "name": "Văn Miếu – Quốc Tử Giám",
        "category": "Văn hóa, lịch sử, nghệ thuật",
        "rating": 4.6,
        "avg_price": 40000,
        "city": "Hà Nội",
        "district": "Đống Đa",
        "latitude": 21.0287485,
        "longitude": 105.8329442
    },
    {
        "attraction_id": "9357604e-c086-11ed-a3a1-04ea5650b820",
        "name": "Highlands Coffee Pullman HN",
        "category": "Đồ uống, thư giãn",
        "rating": 4.2,
        "avg_price": 0,
        "city": "Hà Nội",
        "district": "Đống Đa",
        "latitude": 21.0296018,
        "longitude": 105.8280172
    },
    {
        "attraction_id": "e794cd2a-c086-11ed-9e61-04ea5650b820",
        "name": "Nguyen Art Gallery - Vietnam Artworks & Paintings",
        "category": "Triển lãm, nghệ thuật",
        "rating": 4.7,
        "avg_price": 0,
        "city": "Hà Nội",
        "district": "Đống Đa",
        "latitude": 21.0279933,
        "longitude": 105.8362406
    },
    {
        "attraction_id": "441a429d-c087-11ed-87f3-04ea5650b820",
        "name": "PHỞ GÀ VĂN MIẾU 17",
        "category": "Ẩm thực, nghỉ ngơi",
        "rating": 4.7,
        "avg_price": 0,
        "city": "Hà Nội",
        "district": "Đống Đa",
        "latitude": 21.0289115,
        "longitude": 105.8375611
    },
    {
        "attraction_id": "5eb7d375-c087-11ed-8428-04ea5650b820",
        "name": "Ga Cát Linh",
        "category": "Tàu điện, chụp ảnh",
        "rating": 4.6,
        "avg_price": 0,
        "city": "Hà Nội",
        "district": "Đống Đa",
        "latitude": 21.0282537,
        "longitude": 105.8267202
    },
    {
        "attraction_id": "0466c04a-c09d-11ed-9ee6-04ea5650b820",
        "name": "Chùa Láng",
        "category": "Văn hóa tôn giáo, tâm linh",
        "rating": 4.6,
        "avg_price": 0,
        "city": "Hà Nội",
        "district": "Đống Đa",
        "latitude": 21.0241405,
        "longitude": 105.8038537
    },
    {
        "attraction_id": "70828724-c09d-11ed-970f-04ea5650b820",
        "name": "Nhà Hàng Vịt Vân Đình Minh Phương",
        "category": "Ẩm thực, nghỉ ngơi",
        "rating": 4.2,
        "avg_price": 0,
        "city": "Hà Nội",
        "district": "Đống Đa",
        "latitude": 21.0227192,
        "longitude": 105.8029195
    },
    {
        "attraction_id": "a11de600-c09d-11ed-b8c8-04ea5650b820",
        "name": "Bún Đậu Chùa Láng",
        "category": "Ẩm thực, nghỉ ngơi",
        "rating": 4.2,
        "avg_price": 0,
        "city": "Hà Nội",
        "district": "Đống Đa",
        "latitude": 21.0227137,
        "longitude": 105.801507
    },
    {
        "attraction_id": "ca7f271c-c09d-11ed-913a-04ea5650b820",
        "name": "Nhà Hàng Chả Cá Lão Ngư",
        "category": "Ẩm thực, nghỉ ngơi",
        "rating": 4.2,
        "avg_price": 0,
        "city": "Hà Nội",
        "district": "Đống Đa",
        "latitude": 21.0157019,
        "longitude": 105.8150167
    },
    {
        "attraction_id": "58ccea31-c09e-11ed-8f5f-04ea5650b820",
        "name": "La Mensa",
        "category": "Đồ uống, thư giãn",
        "rating": 4.2,
        "avg_price": 0,
        "city": "Hà Nội",
        "district": "Đống Đa",
        "latitude": 21.014082,
        "longitude": 105.8160752
    },
    {
        "attraction_id": "7e809b92-c09e-11ed-8fa0-04ea5650b820",
        "name": "Highlands coffee Yên Lãng",
        "category": "Đồ uống, thư giãn",
        "rating": 4.2,
        "avg_price": 0,
        "city": "Hà Nội",
        "district": "Đống Đa",
        "latitude": 21.0113395,
        "longitude": 105.8175061
    },
    {
        "attraction_id": "d23a9ce6-c09e-11ed-a97c-04ea5650b820",
        "name": "Cộng Cà phê Đường Láng",
        "category": "Đồ uống, thư giãn",
        "rating": 4.2,
        "avg_price": 0,
        "city": "Hà Nội",
        "district": "Đống Đa",
        "latitude": 21.003678,
        "longitude": 105.8173167
    },
    {
        "attraction_id": "57e2428c-c09f-11ed-bac9-04ea5650b820",
        "name": "Laika Cafe Đường Láng",
        "category": "Đồ uống, thư giãn",
        "rating": 4.2,
        "avg_price": 0,
        "city": "Hà Nội",
        "district": "Đống Đa",
        "latitude": 21.003714, 
        "longitude": 105.819208
    },
    {
        "attraction_id": "85fcf57f-c09f-11ed-8cd2-04ea5650b820",
        "name": "Chè Thanh Vĩnh Hồ",
        "category": "Ẩm thực, nghỉ ngơi",
        "rating": 4.2,
        "avg_price": 0,
        "city": "Hà Nội",
        "district": "Đống Đa",
        "latitude": 21.0065425,
        "longitude": 105.8193927
    },
    {
        "attraction_id": "b113b13b-c09f-11ed-af0b-04ea5650b820",
        "name": "Quán Bánh mì 35",
        "category": "Ẩm thực, nghỉ ngơi",
        "rating": 4.0,
        "avg_price": 0,
        "city": "Hà Nội",
        "district": "Đống Đa",
        "latitude": 21.008366,
        "longitude": 105.819281
    },
    {
        "attraction_id": "d10be192-c09f-11ed-8be3-04ea5650b820",
        "name": "The Coffee House",
        "category": "Đồ uống, thư giãn",
        "rating": 4.4,
        "avg_price": 0,
        "city": "Hà Nội",
        "district": "Đống Đa",
        "latitude": 21.0093855,
        "longitude": 105.8230799
    },
    {
        "attraction_id": "f7a40512-c09f-11ed-a6aa-04ea5650b820",
        "name": "Cộng Cà Phê Thái Hà",
        "category": "Đồ uống, thư giãn",
        "rating": 4.2,
        "avg_price": 0,
        "city": "Hà Nội",
        "district": "Đống Đa",
        "latitude": 21.0099931,
        "longitude": 105.8231169
    },
    {
        "attraction_id": "1dd11e7b-c0a0-11ed-bf5d-04ea5650b820",
        "name": "Xưởng Cafe Hoàng Cầu",
        "category": "Đồ uống, thư giãn",
        "rating": 4.3,
        "avg_price": 0,
        "city": "Hà Nội",
        "district": "Đống Đa",
        "latitude": 21.0167811,
        "longitude": 105.8189155
    },
    {
        "attraction_id": "56277cff-c0a0-11ed-8f73-04ea5650b820",
        "name": "Tiny Cafe Dreamers",
        "category": "Đồ uống, thư giãn",
        "rating": 4.7,
        "avg_price": 0,
        "city": "Hà Nội",
        "district": "Đống Đa",
        "latitude": 21.018852,
        "longitude": 105.8182481
    },
    {
        "attraction_id": "839fe14d-c0a0-11ed-8d7e-04ea5650b820",
        "name": "Skyline Coffee",
        "category": "Đồ uống, thư giãn",
        "rating": 4.3,
        "avg_price": 0,
        "city": "Hà Nội",
        "district": "Đống Đa",
        "latitude": 21.0165312,
        "longitude": 105.8201233
    },
    {
        "attraction_id": "9e602284-c0a0-11ed-9f9d-04ea5650b820",
        "name": "Công viên Văn hóa Đống Đa",
        "category": "Công viên, văn hóa, lịch sử",
        "rating": 4.5,
        "avg_price": 0,
        "city": "Hà Nội",
        "district": "Đống Đa",
        "latitude": 21.0123871,
        "longitude": 105.8244105
    },
    {
        "attraction_id": "ef3f8a53-c0a0-11ed-a87b-04ea5650b820",
        "name": "Gieo CafeGieo Cafe",
        "category": "Đồ uống, thư giãn",
        "rating": 4.5,
        "avg_price": 0,
        "city": "Hà Nội",
        "district": "Đống Đa",
        "latitude": 21.0143508,
        "longitude": 105.82568
    },
    {
        "attraction_id": "14d5a494-c0a1-11ed-a11d-04ea5650b820",
        "name": "Công Viên 1/6",
        "category": "Công viên, đi dạo, ngắm cảnh",
        "rating": 4.5,
        "avg_price": 0,
        "city": "Hà Nội",
        "district": "Đống Đa",
        "latitude": 21.0175963,
        "longitude": 105.8253484
    },
    {
        "attraction_id": "950ca288-c0a1-11ed-89d0-04ea5650b820",
        "name": "Nhà hát Múa rối Việt Nam",
        "category": "Biểu diễn nghệ thuật dân gian",
        "rating": 4.4,
        "avg_price": 0,
        "city": "Hà Nội",
        "district": "Đống Đa",
        "latitude": 21.0018124,
        "longitude": 105.821916
    },
    {
        "attraction_id": "0eff3142-c0a2-11ed-95b3-04ea5650b820",
        "name": "Vua Chả Cá Giảng Võ",
        "category": "Ẩm thực, nghỉ ngơi",
        "rating": 4.1,
        "avg_price": 0,
        "city": "Hà Nội",
        "district": "Đống Đa",
        "latitude": 21.0236547,
        "longitude": 105.8223253
    },
    {
        "attraction_id": "44b42684-c0a2-11ed-84f1-04ea5650b820",
        "name": "The Coffee House Hào Nam",
        "category": "Đồ uống, thư giãn",
        "rating": 4.1,
        "avg_price": 0,
        "city": "Hà Nội",
        "district": "Đống Đa",
        "latitude": 21.0262238,
        "longitude": 105.8286583
    },
    {
        "attraction_id": "bcf05e24-c0a2-11ed-98b9-04ea5650b820",
        "name": "Bánh Xèo Tôn Đức Thắng",
        "category": "Ẩm thực, nghỉ ngơi",
        "rating": 4.3,
        "avg_price": 0,
        "city": "Hà Nội",
        "district": "Đống Đa",
        "latitude": 21.0266067,
        "longitude": 105.8345068
    },
    {
        "attraction_id": "e3bd6f6d-c0a2-11ed-9c15-04ea5650b820",
        "name": "Cháo Hồng Lương Sử",
        "category": "Ẩm thực, nghỉ ngơi",
        "rating": 4.3,
        "avg_price": 0,
        "city": "Hà Nội",
        "district": "Đống Đa",
        "latitude": 21.0252021,
        "longitude": 105.8361315
    },
    {
        "attraction_id": "0edb2448-c0a3-11ed-8410-04ea5650b820",
        "name": "Buffet Chay Hương Thiền",
        "category": "Ẩm thực chay",
        "rating": 4.2,
        "avg_price": 0,
        "city": "Hà Nội",
        "district": "Đống Đa",
        "latitude": 21.0169765,
        "longitude": 105.8305753
    },
    {
        "attraction_id": "c6889f14-c0a3-11ed-aca7-04ea5650b820",
        "name": "Bánh Đúc Nóng Trung Tự",
        "category": "Ẩm thực, nghỉ ngơi",
        "rating": 4.3,
        "avg_price": 0,
        "city": "Hà Nội",
        "district": "Đống Đa",
        "latitude": 21.0089939,
        "longitude": 105.8331489
    },
    {
        "attraction_id": "101c1acb-c0a4-11ed-8f78-04ea5650b820",
        "name": "Chùa Bộc",
        "category": "Văn hóa tôn giáo, tâm linh",
        "rating": 4.5,
        "avg_price": 0,
        "city": "Hà Nội",
        "district": "Đống Đa",
        "latitude": 21.0085227,
        "longitude": 105.8280883
    },
    {
        "attraction_id": "9ced7b93-c0a4-11ed-a5c9-04ea5650b820",
        "name": "Bánh Mỳ Ô Long",
        "category": "Ẩm thực, nghỉ ngơi",
        "rating": 4.0,
        "avg_price": 0,
        "city": "Hà Nội",
        "district": "Đống Đa",
        "latitude": 21.0118036,
        "longitude": 105.8293716
    },
    {
        "attraction_id": "bedd9859-c0a4-11ed-80a9-04ea5650b820",
        "name": "Vincom Center Phạm Ngọc Thạch",
        "category": "Trung tâm thương mại",
        "rating": 4.3,
        "avg_price": 0,
        "city": "Hà Nội",
        "district": "Đống Đa",
        "latitude": 21.0067932,
        "longitude": 105.8318891
    },
    {
        "attraction_id": "0461c564-c0a5-11ed-9818-04ea5650b820",
        "name": "Vincom Center Phạm Ngọc Thạch",
        "category": "Trung tâm thương mại",
        "rating": 4.0,
        "avg_price": 0,
        "city": "Hà Nội",
        "district": "Đống Đa",
        "latitude": 21.0067932,
        "longitude": 105.8318891
    }
]