[
    {
        "attraction_id": "f9a8605b-c079-11ed-875e-04ea5650b820",
        "name": "Bãi Đá Sông Hồng",
        "category": "Vườn hoa, cảnh đẹp",
        "rating": 4.3,
        "avg_price": 0,
        "city": "Hà Nội",
        "district": "Tây Hồ",
        "latitude": 21.0819993,
        "longitude": 105.8287203
    },
    {
        "attraction_id": "705681ef-c07c-11ed-a280-04ea5650b820",
        "name": "Phở Lý Quốc Sư Võ Chí Công",
        "category": "Ẩm thực, nghỉ ngơi",
        "rating": 4.0,
        "avg_price": 0,
        "city": "Hà Nội",
        "district": "Tây Hồ",
        "latitude": 21.0673307,
        "longitude": 105.808343
    },
    {
        "attraction_id": "07da69b6-c07e-11ed-aa3a-04ea5650b820",
        "name": "Phố đi bộ Trịnh Công Sơn",
        "category": "Đi dạo, ngắm cảnh",
        "rating": 4.4,
        "avg_price": 0,
        "city": "Hà Nội",
        "district": "Tây Hồ",
        "latitude": 21.0774586,
        "longitude": 105.8163642
    },
    {
        "attraction_id": "26e1db24-c07e-11ed-aa4d-04ea5650b820",
        "name": "Nhà Hàng Sen Tây Hồ",
        "category": "Ẩm thực, nghỉ ngơi",
        "rating": 4.3,
        "avg_price": 0,
        "city": "Hà Nội",
        "district": "Tây Hồ",
        "latitude": 21.0748017,
        "longitude": 105.8150553
    },
    {
        "attraction_id": "65e49f41-c07e-11ed-bc54-04ea5650b820",
        "name": "Highlands Coffee Nhật Chiêu",
        "category": "Đồ uống, thư giãn",
        "rating": 4.4,
        "avg_price": 0,
        "city": "Hà Nội",
        "district": "Tây Hồ",
        "latitude": 21.0723805,
        "longitude": 105.8163646
    },
    {
        "attraction_id": "a676a590-c07e-11ed-b019-04ea5650b820",
        "name": "Công viên nước Hồ Tây",
        "category": "Công viên nước, vui chơi giải trí",
        "rating": 4.4,
        "avg_price": 0,
        "city": "Hà Nội",
        "district": "Tây Hồ",
        "latitude": 21.0727525,
        "longitude": 105.8171661
    },
    {
        "attraction_id": "fa15d4e9-c07e-11ed-9b32-04ea5650b820",
        "name": "Thung lũng hoa hồ Tây",
        "category": "Vườn hoa, cảnh đẹp",
        "rating": 4.2,
        "avg_price": 0,
        "city": "Hà Nội",
        "district": "Tây Hồ",
        "latitude": 21.0749915,
        "longitude": 105.8192338
    },
    {
        "attraction_id": "2d374554-c07f-11ed-85eb-04ea5650b820",
        "name": "Vườn Hoa Lạc Long Quân",
        "category": "Đi dạo, ngắm cảnh",
        "rating": 4.3,
        "avg_price": 0,
        "city": "Hà Nội",
        "district": "Tây Hồ",
        "latitude": 21.0687563,
        "longitude": 105.8121102
    },
    {
        "attraction_id": "6fdb5315-c07f-11ed-9531-04ea5650b820",
        "name": "Chùa Tảo Sách",
        "category": "Văn hóa tôn giáo, tâm linh",
        "rating": 4.7,
        "avg_price": 0,
        "city": "Hà Nội",
        "district": "Tây Hồ",
        "latitude": 21.0681066,
        "longitude": 105.8115291
    },
    {
        "attraction_id": "ba7df23b-c07f-11ed-9f9b-04ea5650b820",
        "name": "Chùa Vạn Niên",
        "category": "Văn hóa tôn giáo, tâm linh",
        "rating": 4.7,
        "avg_price": 0,
        "city": "Hà Nội",
        "district": "Tây Hồ",
        "latitude": 21.0660719,
        "longitude": 105.8110003
    },
    {
        "attraction_id": "db3af2a8-c07f-11ed-98ac-04ea5650b820",
        "name": "Time Cafe",
        "category": "Đồ uống, thư giãn",
        "rating": 4.7,
        "avg_price": 0,
        "city": "Hà Nội",
        "district": "Tây Hồ",
        "latitude": 21.0604158,
        "longitude": 105.8088816
    },
    {
        "attraction_id": "6bdd5312-c080-11ed-92aa-04ea5650b820",
        "name": "Gia Phúc Cafe",
        "category": "Đồ uống, thư giãn",
        "rating": 4.2,
        "avg_price": 0,
        "city": "Hà Nội",
        "district": "Tây Hồ",
        "latitude": 21.060031, 
        "longitude": 105.809541
    },
    {
        "attraction_id": "843b1948-c080-11ed-9258-04ea5650b820",
        "name": "Câu Lạc Bộ Đua Thuyền Hà Nội",
        "category": "Thể thao, chèo thuyền",
        "rating": 4.3,
        "avg_price": 0,
        "city": "Hà Nội",
        "district": "Tây Hồ",
        "latitude": 21.060427,
        "longitude": 105.8091345
    },
    {
        "attraction_id": "e19408ac-c080-11ed-a661-04ea5650b820",
        "name": "Quán Trà Thảnh Thơi",
        "category": "Đồ uống, thư giãn",
        "rating": 4.5,
        "avg_price": 0,
        "city": "Hà Nội",
        "district": "Tây Hồ",
        "latitude": 21.0552451,
        "longitude": 105.8104403
    },
    {
        "attraction_id": "264da9df-c081-11ed-b48c-04ea5650b820",
        "name": "AHA Cafe",
        "category": "Đồ uống, thư giãn",
        "rating": 4.0,
        "avg_price": 0,
        "city": "Hà Nội",
        "district": "Tây Hồ",
        "latitude": 21.0541188,
        "longitude": 105.8105274
    },
    {
        "attraction_id": "4ae563dd-c081-11ed-b13a-04ea5650b820",
        "name": "Mocua Coffee",
        "category": "Đồ uống, thư giãn",
        "rating": 4.3,
        "avg_price": 0,
        "city": "Hà Nội",
        "district": "Tây Hồ",
        "latitude": 21.0534519,
        "longitude": 105.8113204
    },
    {
        "attraction_id": "6f2be9f5-c081-11ed-b3f8-04ea5650b820",
        "name": "Ốc Phúng Phính",
        "category": "Ẩm thực, nghỉ ngơi",
        "rating": 4.1,
        "avg_price": 0,
        "city": "Hà Nội",
        "district": "Tây Hồ",
        "latitude": 21.05131,
        "longitude": 105.8102738
    },
    {
        "attraction_id": "a2592443-c081-11ed-8142-04ea5650b820",
        "name": "Hanoi Roastery",
        "category": "Đồ uống, thư giãn",
        "rating": 4.5,
        "avg_price": 0,
        "city": "Hà Nội",
        "district": "Tây Hồ",
        "latitude": 21.052403, 
        "longitude": 105.812610
    },
    {
        "attraction_id": "c4c53004-c081-11ed-ac23-04ea5650b820",
        "name": "Cộng Cà Phê | 75 Trích Sài",
        "category": "Đồ uống, thư giãn",
        "rating": 4.2,
        "avg_price": 0,
        "city": "Hà Nội",
        "district": "Tây Hồ",
        "latitude": 21.0467007, 
        "longitude": 105.8130847
    },
    {
        "attraction_id": "22f44797-c082-11ed-a8eb-04ea5650b820",
        "name": "Chay Trúc Lâm Viên",
        "category": "Ẩm thực chay",
        "rating": 4.0,
        "avg_price": 0,
        "city": "Hà Nội",
        "district": "Tây Hồ",
        "latitude": 21.0469553, 
        "longitude": 105.8139824
    },
    {
        "attraction_id": "68f52bca-c082-11ed-b6be-04ea5650b820",
        "name": "Bún đậu cây đa",
        "category": "Ẩm thực, nghỉ ngơi",
        "rating": 4.0,
        "avg_price": 0,
        "city": "Hà Nội",
        "district": "Tây Hồ",
        "latitude": 21.0437531, 
        "longitude": 105.8180507
    },
    {
        "attraction_id": "a24964df-c082-11ed-baa3-04ea5650b820",
        "name": "Nhà Ga Thủy Phi Cơ Hồ Tây",
        "category": "Đồ uống, thư giãn",
        "rating": 4.8,
        "avg_price": 0,
        "city": "Hà Nội",
        "district": "Tây Hồ",
        "latitude": 21.0440748,
        "longitude": 105.8328383
    },
    {
        "attraction_id": "190e270a-c083-11ed-bd0e-04ea5650b820",
        "name": "Vườn hoa Lý Tự Trọng",
        "category": "Đi dạo, ngắm cảnh",
        "rating": 4.3,
        "avg_price": 0,
        "city": "Hà Nội",
        "district": "Tây Hồ",
        "latitude": 21.0431176,
        "longitude": 105.8345339
    },
    {
        "attraction_id": "4047230b-c083-11ed-92ed-04ea5650b820",
        "name": "Chùa Trấn Quốc",
        "category": "Văn hóa tôn giáo, tâm linh",
        "rating": 4.3,
        "avg_price": 0,
        "city": "Hà Nội",
        "district": "Tây Hồ",
        "latitude": 21.0478079,
        "longitude": 105.8365951
    },
    {
        "attraction_id": "64ecfef0-c083-11ed-92ca-04ea5650b820",
        "name": "Đường Thanh Niên",
        "category": "Đi dạo, ngắm cảnh",
        "rating": 4.3,
        "avg_price": 0,
        "city": "Hà Nội",
        "district": "Tây Hồ",
        "latitude": 21.0473793,
        "longitude": 105.8350323
    },
    {
        "attraction_id": "972ad460-c083-11ed-84e2-04ea5650b820",
        "name": "Cho Thuê Xe Đạp Hồ Tây",
        "category": "Thể thao, đạp xe",
        "rating": 4.8,
        "avg_price": 0,
        "city": "Hà Nội",
        "district": "Tây Hồ",
        "latitude": 21.0526283,
        "longitude": 105.8351865
    },
    {
        "attraction_id": "cf223238-c083-11ed-bdaa-04ea5650b820",
        "name": "Hanoi Rock City",
        "category": "Biểu diễn ca nhạc",
        "rating": 4.8,
        "avg_price": 0,
        "city": "Hà Nội",
        "district": "Tây Hồ",
        "latitude": 21.0703965,
        "longitude": 105.8226294
    },
    {
        "attraction_id": "5f3f3244-c084-11ed-86c7-04ea5650b820",
        "name": "Bảo tàng Văn học Việt Nam",
        "category": "Văn hóa, lịch sử, nghệ thuật",
        "rating": 4.4,
        "avg_price": 0,
        "city": "Hà Nội",
        "district": "Tây Hồ",
        "latitude": 21.0706578,
        "longitude": 105.824114
    },
    {
        "attraction_id": "9263d414-c084-11ed-87f9-04ea5650b820",
        "name": "Buffet Chay Veggie Castle",
        "category": "Ẩm thực chay",
        "rating": 4.4,
        "avg_price": 0,
        "city": "Hà Nội",
        "district": "Tây Hồ",
        "latitude": 21.0710302,
        "longitude": 105.8247244
    },
    {
        "attraction_id": "9263d414-c084-11ed-87f9-04ea5650b820",
        "name": "Buffet Chay Veggie Castle",
        "category": "Ẩm thực chay",
        "rating": 4.4,
        "avg_price": 0,
        "city": "Hà Nội",
        "district": "Tây Hồ",
        "latitude": 21.0710302,
        "longitude": 105.8247244
    }
]