[
    {
        "attraction_id": "efa97d9b-c1b1-11ed-a581-04ea5650b820",
        "name": "Twitter Beans Coffee Hoàng Đạo Thúy",
        "category": "Đồ uống, thư giãn",
        "rating": 4.2,
        "avg_price": 0,
        "city": "Hà Nội",
        "district": "Cầu Giấy",
        "latitude": 21.0071257,
        "longitude": 105.8030442
    },
    {
        "attraction_id": "9d893028-c1b2-11ed-ae5a-04ea5650b820",
        "name": "Vincom Center Trần Duy Hưng",
        "category": "Trung tâm thương mại",
        "rating": 4.4,
        "avg_price": 0,
        "city": "Hà Nội",
        "district": "Cầu Giấy",
        "latitude": 21.0062965,
        "longitude": 105.795794
    },
    {
        "attraction_id": "cdf65bdc-c1b2-11ed-b328-04ea5650b820",
        "name": "Trung Nguyên Legend Café",
        "category": "Đồ uống, thư giãn",
        "rating": 4.3,
        "avg_price": 0,
        "city": "Hà Nội",
        "district": "Cầu Giấy",
        "latitude": 21.00894,
        "longitude": 105.8010713
    },
    {
        "attraction_id": "abdc0cce-c1b4-11ed-bc0a-04ea5650b820",
        "name": "Cafe Nhạc Trịnh",
        "category": "Đồ uống, thư giãn",
        "rating": 4.3,
        "avg_price": 0,
        "city": "Hà Nội",
        "district": "Cầu Giấy",
        "latitude": 21.0138193,
        "longitude": 105.7973974
    },
    {
        "attraction_id": "edf605a7-c1b4-11ed-80ec-04ea5650b820",
        "name": "Twitter Beans Coffee Vũ Phạm Hàm",
        "category": "Đồ uống, thư giãn",
        "rating": 4.4,
        "avg_price": 0,
        "city": "Hà Nội",
        "district": "Cầu Giấy",
        "latitude": 21.0158992,
        "longitude": 105.796524
    },
    {
        "attraction_id": "1edf7060-c1b5-11ed-be45-04ea5650b820",
        "name": "The Coffee House Vũ Phạm Hàm",
        "category": "Đồ uống, thư giãn",
        "rating": 4.3,
        "avg_price": 0,
        "city": "Hà Nội",
        "district": "Cầu Giấy",
        "latitude": 21.0158425,
        "longitude": 105.7976369
    },
    {
        "attraction_id": "803cc28b-c1b5-11ed-8bf1-04ea5650b820",
        "name": "Highlands Coffee Vũ Phạm Hàm",
        "category": "Đồ uống, thư giãn",
        "rating": 4.1,
        "avg_price": 0,
        "city": "Hà Nội",
        "district": "Cầu Giấy",
        "latitude": 21.0168288,
        "longitude": 105.7984752
    },
    {
        "attraction_id": "b3698de0-c1b5-11ed-91ab-04ea5650b820",
        "name": "Cộng Cà Phê Trung Hòa",
        "category": "Đồ uống, thư giãn",
        "rating": 4.2,
        "avg_price": 0,
        "city": "Hà Nội",
        "district": "Cầu Giấy",
        "latitude": 21.0173119,
        "longitude": 105.7985859
    },
    {
        "attraction_id": "eb820c85-c1b5-11ed-a617-04ea5650b820",
        "name": "Highlands Coffee Trung Kính",
        "category": "Đồ uống, thư giãn",
        "rating": 4.2,
        "avg_price": 0,
        "city": "Hà Nội",
        "district": "Cầu Giấy",
        "latitude": 21.0188139,
        "longitude": 105.7929268
    },
    {
        "attraction_id": "275519c5-c1b6-11ed-8b82-04ea5650b820",
        "name": "AHA Cafe Trung Kính",
        "category": "Đồ uống, thư giãn",
        "rating": 4.2,
        "avg_price": 0,
        "city": "Hà Nội",
        "district": "Cầu Giấy",
        "latitude": 21.0184667,
        "longitude": 105.7926451
    },
    {
        "attraction_id": "4f3bdea4-c1b6-11ed-8d93-04ea5650b820",
        "name": "Công viên Cầu Giấy",
        "category": "Công viên, đi dạo, ngắm cảnh",
        "rating": 4.4,
        "avg_price": 0,
        "city": "Hà Nội",
        "district": "Cầu Giấy",
        "latitude": 21.0285137,
        "longitude": 105.7914721
    },
    {
        "attraction_id": "b0da0865-c1b6-11ed-a52a-04ea5650b820",
        "name": "Chùa Cót",
        "category": "Văn hóa tôn giáo, tâm linh",
        "rating": 4.6,
        "avg_price": 0,
        "city": "Hà Nội",
        "district": "Cầu Giấy",
        "latitude": 21.0237497,
        "longitude": 105.79258
    },
    {
        "attraction_id": "f5c505ae-c1b6-11ed-aa6f-04ea5650b820",
        "name": "KF POOL ARENA",
        "category": "Vui chơi, giải trí",
        "rating": 4.5,
        "avg_price": 0,
        "city": "Hà Nội",
        "district": "Cầu Giấy",
        "latitude": 21.0312037,
        "longitude": 105.7967814
    },
    {
        "attraction_id": "809bcfa4-c1b7-11ed-8400-04ea5650b820",
        "name": "Starbucks Duy Tân",
        "category": "Đồ uống, thư giãn",
        "rating": 4.5,
        "avg_price": 0,
        "city": "Hà Nội",
        "district": "Cầu Giấy",
        "latitude": 21.0312041,
        "longitude": 105.7854047
    },
    {
        "attraction_id": "7bbad9e5-c1b7-11ed-b193-04ea5650b820",
        "name": "Bún Riêu Bề Bề Tiến Huân",
        "category": "Ẩm thực, nghỉ ngơi",
        "rating": 4.0,
        "avg_price": 0,
        "city": "Hà Nội",
        "district": "Cầu Giấy",
        "latitude": 21.0300793,
        "longitude": 105.7845946
    },
    {
        "attraction_id": "cee1f952-c1b7-11ed-adf3-04ea5650b820",
        "name": "Trâu Kinh Bắc Thành Thái",
        "category": "Ẩm thực, nghỉ ngơi",
        "rating": 4.0,
        "avg_price": 0,
        "city": "Hà Nội",
        "district": "Cầu Giấy",
        "latitude": 21.0290739,
        "longitude": 105.794132
    },
    {
        "attraction_id": "0f200436-c1b8-11ed-839d-04ea5650b820",
        "name": "Cốm Làng Vòng Bà Hoản",
        "category": "Ẩm thực, nghỉ ngơi",
        "rating": 4.2,
        "avg_price": 0,
        "city": "Hà Nội",
        "district": "Cầu Giấy",
        "latitude": 21.034685,
        "longitude": 105.7877532
    },
    {
        "attraction_id": "61d59407-c1b8-11ed-9e8d-04ea5650b820",
        "name": "Gác Trịnh Cafe Trần Thái Tông",
        "category": "Đồ uống, thư giãn",
        "rating": 4.4,
        "avg_price": 0,
        "city": "Hà Nội",
        "district": "Cầu Giấy",
        "latitude": 21.0352832,
        "longitude": 105.7887213
    },
    {
        "attraction_id": "8c14cbe2-c1b8-11ed-ae65-04ea5650b820",
        "name": "Chùa Hà",
        "category": "Văn hóa tôn giáo, tâm linh",
        "rating": 4.4,
        "avg_price": 0,
        "city": "Hà Nội",
        "district": "Cầu Giấy",
        "latitude": 21.0370985,
        "longitude": 105.7941475
    },
    {
        "attraction_id": "e9434ab1-c1b8-11ed-a157-04ea5650b820",
        "name": "Bảo tàng Dân tộc học Việt Nam",
        "category": "Văn hóa, lịch sử, nghệ thuật",
        "rating": 4.5,
        "avg_price": 0,
        "city": "Hà Nội",
        "district": "Cầu Giấy",
        "latitude": 21.0401122,
        "longitude": 105.7982509
    },
    {
        "attraction_id": "4a0e99a6-c1b9-11ed-a25a-04ea5650b820",
        "name": "The Coffee House Nguyễn Khánh Toàn",
        "category": "Đồ uống, thư giãn",
        "rating": 4.4,
        "avg_price": 0,
        "city": "Hà Nội",
        "district": "Cầu Giấy",
        "latitude": 21.0395283,
        "longitude": 105.7985088
    },
    {
        "attraction_id": "6e14b38c-c1b9-11ed-bee4-04ea5650b820",
        "name": "Công viên Nghĩa Đô",
        "category": "Công viên, đi dạo, ngắm cảnh",
        "rating": 4.3,
        "avg_price": 0,
        "city": "Hà Nội",
        "district": "Cầu Giấy",
        "latitude": 21.0398946,
        "longitude": 105.7965372
    },
    {
        "attraction_id": "993293c6-c1b9-11ed-9e7b-04ea5650b820",
        "name": "TreeLand Coffee",
        "category": "Đồ uống, thư giãn",
        "rating": 4.4,
        "avg_price": 0,
        "city": "Hà Nội",
        "district": "Cầu Giấy",
        "latitude": 21.0419619,
        "longitude": 105.7905758
    },
    {
        "attraction_id": "f305c3ef-c1ba-11ed-85f4-04ea5650b820",
        "name": "Công Viên Thiên Đường Bảo Sơn",
        "category": "Công viên, sở thú, vui chơi, giải trí",
        "rating": 4.0,
        "avg_price": 0,
        "city": "Hà Nội",
        "district": "Cầu Giấy",
        "latitude": 20.999005,
        "longitude": 105.7284034
    }
]