[
    {
        "attraction_id": "497a1e42-bf5c-11ed-88bf-04ea5650b820",
        "name": "Hồ Trúc Bạch",
        "category": "Đi dạo, ngắm cảnh",
        "rating": 4.4,
        "avg_price": 0,
        "city": "Hà Nội",
        "district": "Ba Đình",
        "latitude": 21.046358,
        "longitude": 105.8370093
    },
    {
        "attraction_id": "c62ae431-bf5d-11ed-8630-04ea5650b820",
        "name": "Hanoi Studio Gallery",
        "category": "Văn hóa, lịch sử, nghệ thuật",
        "rating": 4.3,
        "avg_price": 0,
        "city": "Hà Nội",
        "district": "Ba Đình",
        "latitude": 21.046258,
        "longitude": 105.8407037
    },
    {
        "attraction_id": "de851a98-bf5e-11ed-9422-04ea5650b820",
        "name": "STAR3 CLUB",
        "category": "Vui chơi, giải trí về đêm",
        "rating": 4.4,
        "avg_price": 0,
        "city": "Hà Nội",
        "district": "Ba Đình",
        "latitude": 21.046258,
        "longitude": 105.8407037
    },
    {
        "attraction_id": "aba7c2df-bf5f-11ed-ae42-04ea5650b820",
        "name": "Bốt Nước Hàng Đậu",
        "category": "Đi dạo, ngắm cảnh",
        "rating": 4.3,
        "avg_price": 0,
        "city": "Hà Nội",
        "district": "Ba Đình",
        "latitude": 21.0407825,
        "longitude": 105.8472994
    },
    {
        "attraction_id": "fe98983f-bf5f-11ed-bc03-04ea5650b820",
        "name": "Đường Phan Đình Phùng",
        "category": "Đi dạo, ngắm cảnh",
        "rating": 4.8,
        "avg_price": 0,
        "city": "Hà Nội",
        "district": "Ba Đình",
        "latitude": 21.0410331,
        "longitude": 105.8403828
    },
    {
        "attraction_id": "67947da8-bf60-11ed-9c4c-04ea5650b820",
        "name": "Đền Quán Thánh",
        "category": "Văn hóa, lịch sử, nghệ thuật",
        "rating": 4.5,
        "avg_price": 0,
        "city": "Hà Nội",
        "district": "Ba Đình",
        "latitude": 21.0428702,
        "longitude": 105.8351671
    },
    {
        "attraction_id": "9ea59957-bf60-11ed-9131-04ea5650b820",
        "name": "Cửa Bắc thành Hà Nội",
        "category": "Văn hóa, lịch sử, nghệ thuật",
        "rating": 4.5,
        "avg_price": 0,
        "city": "Hà Nội",
        "district": "Ba Đình",
        "latitude": 21.0408177,
        "longitude": 105.8400076
    },
    {
        "attraction_id": "356cc211-bf61-11ed-a6c1-04ea5650b820",
        "name": "Nhà Thờ Cửa Bắc",
        "category": "Văn hóa tôn giáo, tâm linh",
        "rating": 4.6,
        "avg_price": 0,
        "city": "Hà Nội",
        "district": "Ba Đình",
        "latitude": 21.0412749,
        "longitude": 105.8404324
    },
    {
        "attraction_id": "a84f6a5c-bf61-11ed-9429-04ea5650b820",
        "name": "Vườn Hoa Hàng Đậu",
        "category": "Đi dạo, ngắm cảnh",
        "rating": 4.3,
        "avg_price": 0,
        "city": "Hà Nội",
        "district": "Ba Đình",
        "latitude": 21.0401322,
        "longitude": 105.8459797
    },
    {
        "attraction_id": "f376a290-bf61-11ed-bc6a-04ea5650b820",
        "name": "Manzi Art Space and Cafe",
        "category": "Đồ uống, thư giãn",
        "rating": 4.5,
        "avg_price": 0,
        "city": "Hà Nội",
        "district": "Ba Đình",
        "latitude": 21.0437341,
        "longitude": 105.8410825
    },
    {
        "attraction_id": "63d80895-bf62-11ed-aecd-04ea5650b820",
        "name": "TỔ CHIM XANH - BLUEBIRDS' NEST",
        "category": "Đồ uống, thư giãn",
        "rating": 4.6,
        "avg_price": 0,
        "city": "Hà Nội",
        "district": "Ba Đình",
        "latitude": 21.0417467,
        "longitude": 105.8387475
    },
    {
        "attraction_id": "f2883b95-bf62-11ed-bfc7-04ea5650b820",
        "name": "Phở Cuốn Hương Mai",
        "category": "Ẩm thực, nghỉ ngơi",
        "rating": 4.2,
        "avg_price": 0,
        "city": "Hà Nội",
        "district": "Ba Đình",
        "latitude": 21.0419968,
        "longitude": 105.8388849
    },
    {
        "attraction_id": "8ce8dac5-bf65-11ed-8fcf-04ea5650b820",
        "name": "Chùa Châu Long",
        "category": "Văn hóa tôn giáo, tâm linh",
        "rating": 4.3,
        "avg_price": 0,
        "city": "Hà Nội",
        "district": "Ba Đình",
        "latitude": 21.0449038,
        "longitude": 105.8420936
    },
    {
        "attraction_id": "289262a5-bf66-11ed-a71c-04ea5650b820",
        "name": "Bánh cuốn Bà Xuân",
        "category": "Ẩm thực, nghỉ ngơi",
        "rating": 4.2,
        "avg_price": 0,
        "city": "Hà Nội",
        "district": "Ba Đình",
        "latitude": 21.0423087,
        "longitude": 105.8473552
    },
    {
        "attraction_id": "4a8aff4f-bf66-11ed-b9e5-04ea5650b820",
        "name": "All Day Coffee 55 Hàng Bún",
        "category": "Đồ uống, thư giãn",
        "rating": 4.5,
        "avg_price": 0,
        "city": "Hà Nội",
        "district": "Ba Đình",
        "latitude": 21.041025,
        "longitude": 105.8445068
    },
    {
        "attraction_id": "da48ee4a-bfba-11ed-bd7a-04ea5650b820",
        "name": "Vườn Bách Thảo Hà Nội",
        "category": "Công viên, đi dạo, ngắm cảnh, cắm trại",
        "rating": 4.2,
        "avg_price": 0,
        "city": "Hà Nội",
        "district": "Ba Đình",
        "latitude": 21.0382735,
        "longitude": 105.831109
    },
    {
        "attraction_id": "5200d249-bfbb-11ed-922b-04ea5650b820",
        "name": "Nhà sàn Bác Hồ",
        "category": "Văn hóa, lịch sử, nghệ thuật",
        "rating": 4.2,
        "avg_price": 0,
        "city": "Hà Nội",
        "district": "Ba Đình",
        "latitude": 21.0382735,
        "longitude": 105.831109
    },
    {
        "attraction_id": "d79e5d9f-bfbb-11ed-804e-04ea5650b820",
        "name": "Cafe Goethe",
        "category": "Đồ uống, thư giãn",
        "rating": 4.2,
        "avg_price": 0,
        "city": "Hà Nội",
        "district": "Ba Đình",
        "latitude": 21.0304661,
        "longitude": 105.8366466
    },
    {
        "attraction_id": "0243b660-bfbc-11ed-915d-04ea5650b820",
        "name": "Bảo tàng Mỹ thuật Việt Nam",
        "category": "Văn hóa, lịch sử, nghệ thuật",
        "rating": 4.2,
        "avg_price": 0,
        "city": "Hà Nội",
        "district": "Ba Đình",
        "latitude": 21.0306889,
        "longitude": 105.837908
    },
    {
        "attraction_id": "628fb79f-bfbc-11ed-a357-04ea5650b820",
        "name": "Vườn hoa Lênin",
        "category": "Đi dạo, ngắm cảnh",
        "rating": 4.3,
        "avg_price": 0,
        "city": "Hà Nội",
        "district": "Ba Đình",
        "latitude": 21.0315717,
        "longitude": 105.8392123
    },
    {
        "attraction_id": "9296481b-bfbc-11ed-b63f-04ea5650b820",
        "name": "Bảo tàng Lịch sử Quân sự Việt Nam",
        "category": "Văn hóa, lịch sử, nghệ thuật",
        "rating": 4.2,
        "avg_price": 0,
        "city": "Hà Nội",
        "district": "Ba Đình",
        "latitude": 21.0325549,
        "longitude": 105.8393124
    },
    {
        "attraction_id": "bd696800-bfbc-11ed-bcde-04ea5650b820",
        "name": "Cột cờ Hà Nội",
        "category": "Văn hóa, lịch sử, nghệ thuật",
        "rating": 4.5,
        "avg_price": 0,
        "city": "Hà Nội",
        "district": "Ba Đình",
        "latitude": 21.0325549,
        "longitude": 105.8393124
    },
    {
        "attraction_id": "29c85392-bfbd-11ed-8323-04ea5650b820",
        "name": "Hoàng Thành Thăng Long",
        "category": "Văn hóa, lịch sử, nghệ thuật",
        "rating": 4.4,
        "avg_price": 0,
        "city": "Hà Nội",
        "district": "Ba Đình",
        "latitude": 21.0357308,
        "longitude": 105.8400091
    },
    {
        "attraction_id": "8c9330f0-bfbd-11ed-8f6b-04ea5650b820",
        "name": "Điện Kính Thiên",
        "category": "Văn hóa, lịch sử, nghệ thuật",
        "rating": 4.4,
        "avg_price": 0,
        "city": "Hà Nội",
        "district": "Ba Đình",
        "latitude": 21.0368231,
        "longitude": 105.8396365
    },
    {
        "attraction_id": "b00f6f3c-bfbd-11ed-ba29-04ea5650b820",
        "name": "Tượng đài Bắc Sơn",
        "category": "Văn hóa, lịch sử, nghệ thuật",
        "rating": 4.5,
        "avg_price": 0,
        "city": "Hà Nội",
        "district": "Ba Đình",
        "latitude": 21.0358898,
        "longitude": 105.8389001
    },
    {
        "attraction_id": "dffc8a6d-bfbd-11ed-b2d2-04ea5650b820",
        "name": "Cộng Cà Phê",
        "category": "Đồ uống, thư giãn",
        "rating": 4.2,
        "avg_price": 0,
        "city": "Hà Nội",
        "district": "Ba Đình",
        "latitude": 21.0339522,
        "longitude": 105.8379675
    },
    {
        "attraction_id": "244364ad-bfbe-11ed-943b-04ea5650b820",
        "name": "An Nhien Cafe Khuc Hao",
        "category": "Đồ uống, thư giãn",
        "rating": 4.2,
        "avg_price": 0,
        "city": "Hà Nội",
        "district": "Ba Đình",
        "latitude": 21.0319693,
        "longitude": 105.8363105
    },
    {
        "attraction_id": "e14ab087-bfbe-11ed-8c81-04ea5650b820",
        "name": "Quảng trường Ba Đình",
        "category": "Văn hóa, lịch sử, nghệ thuật",
        "rating": 4.6,
        "avg_price": 0,
        "city": "Hà Nội",
        "district": "Ba Đình",
        "latitude": 21.0363194,
        "longitude": 105.8348019
    },
    {
        "attraction_id": "fcfd0f42-bfbe-11ed-a0af-04ea5650b820",
        "name": "Lăng Chủ tịch Hồ Chí Minh",
        "category": "Văn hóa, lịch sử, nghệ thuật",
        "rating": 4.5,
        "avg_price": 0,
        "city": "Hà Nội",
        "district": "Ba Đình",
        "latitude": 21.037022,
        "longitude": 105.8340603
    },
    {
        "attraction_id": "34455071-bfbf-11ed-9ae7-04ea5650b820",
        "name": "Chùa Một Cột",
        "category": "Văn hóa tôn giáo, tâm linh",
        "rating": 4.5,
        "avg_price": 0,
        "city": "Hà Nội",
        "district": "Ba Đình",
        "latitude": 21.0356672,
        "longitude": 105.832563
    },
    {
        "attraction_id": "62039f58-bfbf-11ed-8d49-04ea5650b820",
        "name": "Bảo tàng Hồ Chí Minh",
        "category": "Văn hóa, lịch sử, nghệ thuật",
        "rating": 4.3,
        "avg_price": 0,
        "city": "Hà Nội",
        "district": "Ba Đình",
        "latitude": 21.0354475,
        "longitude": 105.8322877
    },
    {
        "attraction_id": "8a5dcb26-bfbf-11ed-b351-04ea5650b820",
        "name": "Quán Bánh Cuốn Nóng Gia Truyền Đội Cấn",
        "category": "Ẩm thực, nghỉ ngơi",
        "rating": 4.3,
        "avg_price": 0,
        "city": "Hà Nội",
        "district": "Ba Đình",
        "latitude": 21.0343168,
        "longitude": 105.8297043
    },
    {
        "attraction_id": "c2e03bf9-bfbf-11ed-9b1a-04ea5650b820",
        "name": "Chè Thái Đội Cấn",
        "category": "Ẩm thực, nghỉ ngơi",
        "rating": 4.1,
        "avg_price": 0,
        "city": "Hà Nội",
        "district": "Ba Đình",
        "latitude": 21.0343168,
        "longitude": 105.8297043
    },
    {
        "attraction_id": "46760130-bfde-11ed-a593-04ea5650b820",
        "name": "Công viên Indira Gandhi",
        "category": "Công viên, đi dạo, ngắm cảnh",
        "rating": 4.2,
        "avg_price": 0,
        "city": "Hà Nội",
        "district": "Ba Đình",
        "latitude": 21.0207413,
        "longitude": 105.8115085
    },
    {
        "attraction_id": "e58b9edb-bfde-11ed-a8a8-04ea5650b820",
        "name": "Đình Làng Thành Công",
        "category": "Văn hóa, lịch sử, nghệ thuật",
        "rating": 4.3,
        "avg_price": 0,
        "city": "Hà Nội",
        "district": "Ba Đình",
        "latitude": 21.0212103,
        "longitude": 105.8173125
    },
    {
        "attraction_id": "034fd615-bfdf-11ed-b60f-04ea5650b820",
        "name": "Tiny Cafe",
        "category": "Đồ uống, thư giãn",
        "rating": 4.4,
        "avg_price": 0,
        "city": "Hà Nội",
        "district": "Ba Đình",
        "latitude": 21.0219927,
        "longitude": 105.8178141
    },
    {
        "attraction_id": "29bddf25-bfdf-11ed-9573-04ea5650b820",
        "name": "Miến Lươn Huyền Trang",
        "category": "Ẩm thực, nghỉ ngơi",
        "rating": 4.0,
        "avg_price": 0,
        "city": "Hà Nội",
        "district": "Ba Đình",
        "latitude": 21.0236252,
        "longitude": 105.8187708
    },
    {
        "attraction_id": "741b1894-bfdf-11ed-bd8e-04ea5650b820",
        "name": "Quán Xôi Xéo Oanh Oanh",
        "category": "Ẩm thực, nghỉ ngơi",
        "rating": 4.3,
        "avg_price": 0,
        "city": "Hà Nội",
        "district": "Ba Đình",
        "latitude": 21.0234238,
        "longitude": 105.8173328
    },
    {
        "attraction_id": "b9cf8169-bfdf-11ed-bfbb-04ea5650b820",
        "name": "Phở Lý Quốc Sư",
        "category": "Ẩm thực, nghỉ ngơi",
        "rating": 4.2,
        "avg_price": 0,
        "city": "Hà Nội",
        "district": "Ba Đình",
        "latitude": 21.0208135,
        "longitude": 105.8142165
    },
    {
        "attraction_id": "e28c1c4b-bfdf-11ed-b5c9-04ea5650b820",
        "name": "Công viên Thủ Lệ",
        "category": "Công viên, giải trí, đi dạo, ngắm cảnh",
        "rating": 4.1,
        "avg_price": 0,
        "city": "Hà Nội",
        "district": "Ba Đình",
        "latitude": 21.0303808,
        "longitude": 105.8044717
    },
    {
        "attraction_id": "c5369d25-bfe2-11ed-86ca-04ea5650b820",
        "name": "Haan Vegan - Buffet Chay",
        "category": "Ẩm thực, nghỉ ngơi",
        "rating": 4.4,
        "avg_price": 0,
        "city": "Hà Nội",
        "district": "Ba Đình",
        "latitude": 21.0331734,
        "longitude": 105.8052527
    },
    {
        "attraction_id": "066a4b65-bfe3-11ed-899f-04ea5650b820",
        "name": "Bò King Beefsteak",
        "category": "Ẩm thực, nghỉ ngơi",
        "rating": 4.3,
        "avg_price": 0,
        "city": "Hà Nội",
        "district": "Ba Đình",
        "latitude": 21.0330394,
        "longitude": 105.8056118
    },
    {
        "attraction_id": "2649fa4c-bfe3-11ed-a384-04ea5650b820",
        "name": "Thạch Dừa Đồng Tháp",
        "category": "Đồ uống, thư giãn",
        "rating": 4.1,
        "avg_price": 0,
        "city": "Hà Nội",
        "district": "Ba Đình",
        "latitude": 21.0257028,
        "longitude": 105.8109907
    },
    {
        "attraction_id": "d38caf3d-bfe4-11ed-933e-04ea5650b820",
        "name": "Highlands Coffee Kim Mã",
        "category": "Đồ uống, thư giãn",
        "rating": 4.1,
        "avg_price": 0,
        "city": "Hà Nội",
        "district": "Ba Đình",
        "latitude": 21.0296085,
        "longitude": 105.8101597
    },
    {
        "attraction_id": "f89f3942-bfe4-11ed-a823-04ea5650b820",
        "name": "AHA Cafe",
        "category": "Đồ uống, thư giãn",
        "rating": 4.1,
        "avg_price": 0,
        "city": "Hà Nội",
        "district": "Ba Đình",
        "latitude": 21.0282398,
        "longitude": 105.8123007
    },
    {
        "attraction_id": "57d72e93-bfe5-11ed-8d5b-04ea5650b820",
        "name": "Paris Gateaux Cafe",
        "category": "Đồ uống, thư giãn",
        "rating": 4.0,
        "avg_price": 0,
        "city": "Hà Nội",
        "district": "Ba Đình",
        "latitude": 21.0273153,
        "longitude": 105.8127297
    },
    {
        "attraction_id": "8471ed28-bfe5-11ed-9cf8-04ea5650b820",
        "name": "Highlands Coffee VTV",
        "category": "Đồ uống, thư giãn",
        "rating": 4.4,
        "avg_price": 0,
        "city": "Hà Nội",
        "district": "Ba Đình",
        "latitude": 21.026439, 
        "longitude": 105.812048
    },
    {
        "attraction_id": "ce918d10-bfe5-11ed-8737-04ea5650b820",
        "name": "Bún Chả Ngọc Khánh",
        "category": "Ẩm thực, nghỉ ngơi",
        "rating": 4.0,
        "avg_price": 0,
        "city": "Hà Nội",
        "district": "Ba Đình",
        "latitude": 21.0270444,
        "longitude": 105.8122778
    },
    {
        "attraction_id": "f4fc6333-bfe5-11ed-8478-04ea5650b820",
        "name": "Vincom Metropolis Liễu Giai",
        "category": "Trung tâm thương mại",
        "rating": 4.4,
        "avg_price": 0,
        "city": "Hà Nội",
        "district": "Ba Đình",
        "latitude": 21.0311427,
        "longitude": 105.8128634
    },
    {
        "attraction_id": "8b844aac-bfe6-11ed-b9c3-04ea5650b820",
        "name": "Phê La Núi Trúc",
        "category": "Đồ uống, thư giãn",
        "rating": 4.2,
        "avg_price": 0,
        "city": "Hà Nội",
        "district": "Ba Đình",
        "latitude": 21.0317766,
        "longitude": 105.8191651
    },
    {
        "attraction_id": "cfb7db30-bfe6-11ed-a07b-04ea5650b820",
        "name": "GoGi House",
        "category": "Ẩm thực, nghỉ ngơi",
        "rating": 4.2,
        "avg_price": 0,
        "city": "Hà Nội",
        "district": "Ba Đình",
        "latitude": 21.0327814,
        "longitude": 105.826816
    },
    {
        "attraction_id": "00daa7b1-bfe7-11ed-b3c6-04ea5650b820",
        "name": "Lẩu Ếch Hà My",
        "category": "Ẩm thực, nghỉ ngơi",
        "rating": 4.1,
        "avg_price": 0,
        "city": "Hà Nội",
        "district": "Ba Đình",
        "latitude": 21.0332529,
        "longitude": 105.8268508
    },
    {
        "attraction_id": "2d13d526-bfe7-11ed-a599-04ea5650b820",
        "name": "Miến lươn Sành Phố Cổ",
        "category": "Ẩm thực, nghỉ ngơi",
        "rating": 4.2,
        "avg_price": 0,
        "city": "Hà Nội",
        "district": "Ba Đình",
        "latitude": 21.0337881,
        "longitude": 105.8149232
    },
    {
        "attraction_id": "6647b830-bfe7-11ed-95ac-04ea5650b820",
        "name": "Cộng Cà Phê",
        "category": "Đồ uống, thư giãn",
        "rating": 4.1,
        "avg_price": 0,
        "city": "Hà Nội",
        "district": "Ba Đình",
        "latitude": 21.0337881,
        "longitude": 105.8149232
    },
    {
        "attraction_id": "8f95b0cd-bfe7-11ed-a406-04ea5650b820",
        "name": "Quán Lươn Nghệ An Bà Liêm",
        "category": "Ẩm thực, nghỉ ngơi",
        "rating": 4.0,
        "avg_price": 0,
        "city": "Hà Nội",
        "district": "Ba Đình",
        "latitude": 21.0357623,
        "longitude": 105.8169596
    },
    {
        "attraction_id": "cc852765-bfe7-11ed-9882-04ea5650b820",
        "name": "Bánh Xèo Nem Lụi Ngọc Dương Đội Cấn",
        "category": "Ẩm thực, nghỉ ngơi",
        "rating": 4.1,
        "avg_price": 0,
        "city": "Hà Nội",
        "district": "Ba Đình",
        "latitude": 21.0347999,
        "longitude": 105.8267742
    },
    {
        "attraction_id": "477a3c4d-bfe8-11ed-a851-04ea5650b820",
        "name": "Quán Cháo Sườn sụn Đội Cấn",
        "category": "Ẩm thực, nghỉ ngơi",
        "rating": 3.9,
        "avg_price": 0,
        "city": "Hà Nội",
        "district": "Ba Đình",
        "latitude": 21.0345374,
        "longitude": 105.8261168
    },
    {
        "attraction_id": "477a3c4d-bfe8-11ed-a851-04ea5650b820",
        "name": "Bún Bò Huế An Cựu",
        "category": "Ẩm thực, nghỉ ngơi",
        "rating": 4.2,
        "avg_price": 0,
        "city": "Hà Nội",
        "district": "Ba Đình",
        "latitude": 21.0345306,
        "longitude": 105.826518
    },
    {
        "attraction_id": "b023628a-bfe8-11ed-a069-04ea5650b820",
        "name": "Bảo tàng Chiến thắng B-52",
        "category": "Văn hóa, lịch sử, nghệ thuật",
        "rating": 4.3,
        "avg_price": 0,
        "city": "Hà Nội",
        "district": "Ba Đình",
        "latitude": 21.0353704,
        "longitude": 105.8258728
    },
    {
        "attraction_id": "08bcc1b9-bfe9-11ed-b8dc-04ea5650b820",
        "name": "Pizza 4P's Phan Ké Bính",
        "category": "Ẩm thực, nghỉ ngơi",
        "rating": 4.9,
        "avg_price": 0,
        "city": "Hà Nội",
        "district": "Ba Đình",
        "latitude": 21.0344102,
        "longitude": 105.8127703
    },
    {
        "attraction_id": "30f42d6d-bfe9-11ed-968c-04ea5650b82",
        "name": "Joma Bakery Café • Liễu Giai",
        "category": "Đồ uống, thư giãn",
        "rating": 4.3,
        "avg_price": 0,
        "city": "Hà Nội",
        "district": "Ba Đình",
        "latitude": 21.034881,
        "longitude": 105.813986
    },
    {
        "attraction_id": "76362c39-bfe9-11ed-870b-04ea5650b820",
        "name": "Soya Garden",
        "category": "Đồ uống, thư giãn",
        "rating": 4.3,
        "avg_price": 0,
        "city": "Hà Nội",
        "district": "Ba Đình",
        "latitude": 21.0380459,
        "longitude": 105.8152393
    }
]